[
  {
    "roomid": "Z4",
    "siteid": "005",
    "automated": "N",
    "roomname": "Wilkins Building (Main Building) Portico",
    "location": {
      "coordinates": {
        "lng": "-0.13366",
        "lat": "51.524699"
      },
      "address": [
        "Gower Street",
        "London",
        "WC1E 6BT",
        ""
      ]
    },
    "sitename": "Main Building",
    "capacity": 50,
    "classification": "SS"
  },
  {
    "roomid": "433",
    "siteid": "086",
    "automated": "P",
    "roomname": "Torrington (1-19) 433",
    "location": {
      "coordinates": {
        "lng": "-0.1346",
        "lat": "51.521735"
      },
      "address": [
        "1-19 Torrington Place",
        "London",
        "WC1E 7HB",
        ""
      ]
    },
    "sitename": "Torrington Place, 1-19",
    "capacity": 55,
    "classification": "CR"
  },
  {
    "roomid": "B05A",
    "siteid": "044",
    "automated": "P",
    "roomname": "Darwin Building B05",
    "location": {
      "coordinates": {
        "lng": "-0.1328",
        "lat": "51.5232"
      },
      "address": [
        "Gower Street,",
        "London",
        "WC1E 6BT",
        ""
      ]
    },
    "sitename": "Darwin Building",
    "capacity": 40,
    "classification": "CR"
  },
  {
    "roomid": "B15",
    "siteid": "044",
    "automated": "P",
    "roomname": "Darwin Building B15",
    "location": {
      "coordinates": {
        "lng": "-0.1328",
        "lat": "51.5232"
      },
      "address": [
        "Gower Street,",
        "London",
        "WC1E 6BT",
        ""
      ]
    },
    "sitename": "Darwin Building",
    "capacity": 40,
    "classification": "CR"
  },
  {
    "roomid": "B40",
    "siteid": "044",
    "automated": "P",
    "roomname": "Darwin Building B40 LT",
    "location": {
      "coordinates": {
        "lng": "-0.1328",
        "lat": "51.5232"
      },
      "address": [
        "Gower Street,",
        "London",
        "WC1E 6BT",
        ""
      ]
    },
    "sitename": "Darwin Building",
    "capacity": 270,
    "classification": "LT"
  },
  {
    "roomid": "B301",
    "siteid": "212",
    "automated": "A",
    "roomname": "Cruciform Building B.3.01",
    "location": {
      "coordinates": {
        "lng": "-0.1346",
        "lat": "51.5241"
      },
      "address": [
        "Gower Street,",
        "London",
        "WC1E 6BT",
        ""
      ]
    },
    "sitename": "Cruciform Building",
    "capacity": 10,
    "classification": "CR"
  },
  {
    "roomid": "B305",
    "siteid": "212",
    "automated": "A",
    "roomname": "Cruciform Building B.3.05",
    "location": {
      "coordinates": {
        "lng": "-0.1346",
        "lat": "51.5241"
      },
      "address": [
        "Gower Street,",
        "London",
        "WC1E 6BT",
        ""
      ]
    },
    "sitename": "Cruciform Building",
    "capacity": 6,
    "classification": "CR"
  },
  {
    "roomid": "B306",
    "siteid": "212",
    "automated": "A",
    "roomname": "Cruciform Building B.3.06",
    "location": {
      "coordinates": {
        "lng": "-0.1346",
        "lat": "51.5241"
      },
      "address": [
        "Gower Street,",
        "London",
        "WC1E 6BT",
        ""
      ]
    },
    "sitename": "Cruciform Building",
    "capacity": 6,
    "classification": "CR"
  },
  {
    "roomid": "B307",
    "siteid": "212",
    "automated": "A",
    "roomname": "Cruciform Building B.3.07",
    "location": {
      "coordinates": {
        "lng": "-0.1346",
        "lat": "51.5241"
      },
      "address": [
        "Gower Street,",
        "London",
        "WC1E 6BT",
        ""
      ]
    },
    "sitename": "Cruciform Building",
    "capacity": 6,
    "classification": "CR"
  },
  {
    "roomid": "B401",
    "siteid": "212",
    "automated": "A",
    "roomname": "Cruciform Building B.4.01",
    "location": {
      "coordinates": {
        "lng": "-0.1346",
        "lat": "51.5241"
      },
      "address": [
        "Gower Street,",
        "London",
        "WC1E 6BT",
        ""
      ]
    },
    "sitename": "Cruciform Building",
    "capacity": 8,
    "classification": "CR"
  },
  {
    "roomid": "B1.03",
    "siteid": "212",
    "automated": "P",
    "roomname": "Cruciform Building B1.03",
    "location": {
      "coordinates": {
        "lng": "-0.1346",
        "lat": "51.5241"
      },
      "address": [
        "Gower Street,",
        "London",
        "WC1E 6BT",
        ""
      ]
    },
    "sitename": "Cruciform Building",
    "capacity": 18,
    "classification": "CR"
  },
  {
    "roomid": "B30",
    "siteid": "025",
    "automated": "P",
    "roomname": "Gordon Square (25) B30",
    "location": {
      "coordinates": {
        "lng": "-0.13223",
        "lat": "51.524597"
      },
      "address": [
        "25 Gordon Square",
        "London",
        "WC1H 0AG",
        ""
      ]
    },
    "sitename": "Gordon Square, 25",
    "capacity": 18,
    "classification": "CR"
  },
  {
    "roomid": "112",
    "siteid": "040",
    "automated": "P",
    "roomname": "Foster Court 112",
    "location": {
      "coordinates": {
        "lng": "-0.1326",
        "lat": "51.5237"
      },
      "address": [
        "Gower Street,",
        "London",
        "WC1E 6BT",
        ""
      ]
    },
    "sitename": "Foster Court",
    "capacity": 18,
    "classification": "CR"
  },
  {
    "roomid": "113",
    "siteid": "040",
    "automated": "P",
    "roomname": "Foster Court 113",
    "location": {
      "coordinates": {
        "lng": "-0.1326",
        "lat": "51.5237"
      },
      "address": [
        "Gower Street,",
        "London",
        "WC1E 6BT",
        ""
      ]
    },
    "sitename": "Foster Court",
    "capacity": 18,
    "classification": "CR"
  },
  {
    "roomid": "101",
    "siteid": "028",
    "automated": "P",
    "roomname": "Gordon Square (23) 101",
    "location": {
      "coordinates": {
        "lng": "-0.132115",
        "lat": "51.524497"
      },
      "address": [
        "23 Gordon Square",
        "London",
        "WC1H 0AG",
        ""
      ]
    },
    "sitename": "Gordon Square, 23",
    "capacity": 18,
    "classification": "CR"
  },
  {
    "roomid": "235",
    "siteid": "040",
    "automated": "P",
    "roomname": "Foster Court 235",
    "location": {
      "coordinates": {
        "lng": "-0.1326",
        "lat": "51.5237"
      },
      "address": [
        "Gower Street,",
        "London",
        "WC1E 6BT",
        ""
      ]
    },
    "sitename": "Foster Court",
    "capacity": 20,
    "classification": "CR"
  },
  {
    "roomid": "243",
    "siteid": "040",
    "automated": "P",
    "roomname": "Foster Court 243",
    "location": {
      "coordinates": {
        "lng": "-0.1326",
        "lat": "51.5237"
      },
      "address": [
        "Gower Street,",
        "London",
        "WC1E 6BT",
        ""
      ]
    },
    "sitename": "Foster Court",
    "capacity": 20,
    "classification": "CR"
  },
  {
    "roomid": "337",
    "siteid": "374",
    "automated": "P",
    "roomname": "Rockefeller Building 337 David Sacks",
    "location": {
      "coordinates": {
        "lng": "-0.134937",
        "lat": "51.523504"
      },
      "address": [
        "74 Huntley Street",
        "London",
        "WC1E 6AU",
        ""
      ]
    },
    "sitename": "Medical School Building",
    "capacity": 38,
    "classification": "CR"
  },
  {
    "roomid": "338",
    "siteid": "374",
    "automated": "A",
    "roomname": "Rockefeller Building 338",
    "location": {
      "coordinates": {
        "lng": "-0.134937",
        "lat": "51.523504"
      },
      "address": [
        "74 Huntley Street",
        "London",
        "WC1E 6AU",
        ""
      ]
    },
    "sitename": "Medical School Building",
    "capacity": 8,
    "classification": "CR"
  },
  {
    "roomid": "339",
    "siteid": "374",
    "automated": "P",
    "roomname": "Rockefeller Building 339",
    "location": {
      "coordinates": {
        "lng": "-0.134937",
        "lat": "51.523504"
      },
      "address": [
        "74 Huntley Street",
        "London",
        "WC1E 6AU",
        ""
      ]
    },
    "sitename": "Medical School Building",
    "capacity": 24,
    "classification": "CR"
  },
  {
    "roomid": "102",
    "siteid": "350",
    "automated": "P",
    "roomname": "Malet Place Engineering Building 1.02",
    "location": {
      "coordinates": {
        "lng": "-0.1323",
        "lat": "51.5231"
      },
      "address": [
        "Gower Street",
        "London",
        "WC1E 6BT",
        ""
      ]
    },
    "sitename": "Malet Place Engineering Building",
    "capacity": 84,
    "classification": "LT"
  },
  {
    "roomid": "103",
    "siteid": "350",
    "automated": "P",
    "roomname": "Malet Place Engineering Building 1.03",
    "location": {
      "coordinates": {
        "lng": "-0.1323",
        "lat": "51.5231"
      },
      "address": [
        "Gower Street",
        "London",
        "WC1E 6BT",
        ""
      ]
    },
    "sitename": "Malet Place Engineering Building",
    "capacity": 84,
    "classification": "LT"
  },
  {
    "roomid": "G12",
    "siteid": "012",
    "automated": "P",
    "roomname": "South Wing G12 Council Room",
    "location": {
      "coordinates": {
        "lng": "-0.13352",
        "lat": "51.524135"
      },
      "address": [
        "Gower Street,",
        "London",
        "WC1E 6BT",
        ""
      ]
    },
    "sitename": "South Wing",
    "capacity": 24,
    "classification": "MR"
  },
  {
    "roomid": "104",
    "siteid": "365",
    "automated": "P",
    "roomname": "Engineering Front Suite 104",
    "location": {
      "coordinates": {
        "lng": "-0.1323",
        "lat": "51.5226"
      },
      "address": [
        "Torrington Place",
        "London",
        "WC1E 7JE",
        ""
      ]
    },
    "sitename": "Engineering Front Building",
    "capacity": 25,
    "classification": "CR"
  },
  {
    "roomid": "104",
    "siteid": "350",
    "automated": "P",
    "roomname": "Malet Place Engineering Building 1.04",
    "location": {
      "coordinates": {
        "lng": "-0.1323",
        "lat": "51.5231"
      },
      "address": [
        "Gower Street",
        "London",
        "WC1E 6BT",
        ""
      ]
    },
    "sitename": "Malet Place Engineering Building",
    "capacity": 22,
    "classification": "CR"
  },
  {
    "roomid": "B32",
    "siteid": "024",
    "automated": "P",
    "roomname": "Gordon Square (26) B32",
    "location": {
      "coordinates": {
        "lng": "-0.132287",
        "lat": "51.524652"
      },
      "address": [
        "26 Gordon Square",
        "London",
        "WC1H 0AG",
        ""
      ]
    },
    "sitename": "Gordon Square, 26",
    "capacity": 32,
    "classification": "CR"
  },
  {
    "roomid": "431",
    "siteid": "126",
    "automated": "P",
    "roomname": "Taviton (16) 431",
    "location": {
      "coordinates": {
        "lng": "-0.131761",
        "lat": "51.525342"
      },
      "address": [
        "15 Taviton Street",
        "London",
        "WC1H 0BW",
        ""
      ]
    },
    "sitename": "Taviton Street 14-16",
    "capacity": 32,
    "classification": "CR"
  },
  {
    "roomid": "103",
    "siteid": "365",
    "automated": "P",
    "roomname": "Engineering Front Executive Suite 103",
    "location": {
      "coordinates": {
        "lng": "-0.1323",
        "lat": "51.5226"
      },
      "address": [
        "Torrington Place",
        "London",
        "WC1E 7JE",
        ""
      ]
    },
    "sitename": "Engineering Front Building",
    "capacity": 34,
    "classification": "LT"
  },
  {
    "roomid": "101",
    "siteid": "035",
    "automated": "P",
    "roomname": "Gordon Square (16-18) 101",
    "location": {
      "coordinates": {
        "lng": "-0.131769",
        "lat": "51.524183"
      },
      "address": [
        "16-18 Gordon Square",
        "London",
        "WC1H 0AG",
        ""
      ]
    },
    "sitename": "Gordon Square, 16-18",
    "capacity": 35,
    "classification": "CR"
  },
  {
    "roomid": "G17",
    "siteid": "003",
    "automated": "P",
    "roomname": "Pearson Building (North East Entrance) G17",
    "location": {
      "coordinates": {
        "lng": "-0.134835",
        "lat": "51.524742"
      },
      "address": [
        "Gower Street,",
        "London",
        "WC1E 6BT",
        ""
      ]
    },
    "sitename": "Pearson Building",
    "capacity": 20,
    "classification": "CR"
  },
  {
    "roomid": "105",
    "siteid": "026",
    "automated": "P",
    "roomname": "Gordon Square (24) 105",
    "location": {
      "coordinates": {
        "lng": "-0.132171",
        "lat": "51.524544"
      },
      "address": [
        "24 Gordon Square",
        "London",
        "WC1H 0AG",
        ""
      ]
    },
    "sitename": "Gordon Square, 24",
    "capacity": 39,
    "classification": "LT"
  },
  {
    "roomid": "107",
    "siteid": "025",
    "automated": "P",
    "roomname": "Gordon Square (25) 107",
    "location": {
      "coordinates": {
        "lng": "-0.13223",
        "lat": "51.524597"
      },
      "address": [
        "25 Gordon Square",
        "London",
        "WC1H 0AG",
        ""
      ]
    },
    "sitename": "Gordon Square, 25",
    "capacity": 39,
    "classification": "LT"
  },
  {
    "roomid": "G22",
    "siteid": "003",
    "automated": "P",
    "roomname": "Pearson Building (North East Entrance) G22 LT",
    "location": {
      "coordinates": {
        "lng": "-0.134835",
        "lat": "51.524742"
      },
      "address": [
        "Gower Street,",
        "London",
        "WC1E 6BT",
        ""
      ]
    },
    "sitename": "Pearson Building",
    "capacity": 84,
    "classification": "LT"
  },
  {
    "roomid": "G23",
    "siteid": "003",
    "automated": "P",
    "roomname": "Pearson Building (North East Entrance) G23",
    "location": {
      "coordinates": {
        "lng": "-0.134835",
        "lat": "51.524742"
      },
      "address": [
        "Gower Street,",
        "London",
        "WC1E 6BT",
        ""
      ]
    },
    "sitename": "Pearson Building",
    "capacity": 18,
    "classification": "CR"
  },
  {
    "roomid": "114",
    "siteid": "040",
    "automated": "P",
    "roomname": "Foster Court 114",
    "location": {
      "coordinates": {
        "lng": "-0.1326",
        "lat": "51.5237"
      },
      "address": [
        "Gower Street,",
        "London",
        "WC1E 6BT",
        ""
      ]
    },
    "sitename": "Foster Court",
    "capacity": 40,
    "classification": "CR"
  },
  {
    "roomid": "G26",
    "siteid": "003",
    "automated": "A",
    "roomname": "Pearson Building (North East Entrance) G26",
    "location": {
      "coordinates": {
        "lng": "-0.134835",
        "lat": "51.524742"
      },
      "address": [
        "Gower Street,",
        "London",
        "WC1E 6BT",
        ""
      ]
    },
    "sitename": "Pearson Building",
    "capacity": 10,
    "classification": "CR"
  },
  {
    "roomid": "432",
    "siteid": "126",
    "automated": "P",
    "roomname": "Taviton (16) 432",
    "location": {
      "coordinates": {
        "lng": "-0.131761",
        "lat": "51.525342"
      },
      "address": [
        "15 Taviton Street",
        "London",
        "WC1H 0BW",
        ""
      ]
    },
    "sitename": "Taviton Street 14-16",
    "capacity": 44,
    "classification": "CR"
  },
  {
    "roomid": "335",
    "siteid": "374",
    "automated": "P",
    "roomname": "Rockefeller Building 335",
    "location": {
      "coordinates": {
        "lng": "-0.134937",
        "lat": "51.523504"
      },
      "address": [
        "74 Huntley Street",
        "London",
        "WC1E 6AU",
        ""
      ]
    },
    "sitename": "Medical School Building",
    "capacity": 20,
    "classification": "CR"
  },
  {
    "roomid": "011",
    "siteid": "181",
    "automated": "N",
    "roomname": "Birkbeck Gordon Square (43) Cinema",
    "location": {
      "coordinates": {
        "lng": "-0.1305394",
        "lat": "51.5218725"
      },
      "address": [
        "39-41 Gordon Square",
        "London",
        "WC1H 0PD",
        ""
      ]
    },
    "sitename": "Birkbeck Gordon Square, 43",
    "capacity": 70,
    "classification": "LT"
  },
  {
    "roomid": "110",
    "siteid": "181",
    "automated": "N",
    "roomname": "Birkbeck Gordon Square (43) 104",
    "location": {
      "coordinates": {
        "lng": "-0.1305394",
        "lat": "51.5218725"
      },
      "address": [
        "39-41 Gordon Square",
        "London",
        "WC1H 0PD",
        ""
      ]
    },
    "sitename": "Birkbeck Gordon Square, 43",
    "capacity": 24,
    "classification": "CR"
  },
  {
    "roomid": "120",
    "siteid": "181",
    "automated": "N",
    "roomname": "Birkbeck Gordon Square (43) 120",
    "location": {
      "coordinates": {
        "lng": "-0.1305394",
        "lat": "51.5218725"
      },
      "address": [
        "39-41 Gordon Square",
        "London",
        "WC1H 0PD",
        ""
      ]
    },
    "sitename": "Birkbeck Gordon Square, 43",
    "capacity": 22,
    "classification": "CR"
  },
  {
    "roomid": "122",
    "siteid": "181",
    "automated": "N",
    "roomname": "Birkbeck Gordon Square (43) 122",
    "location": {
      "coordinates": {
        "lng": "-0.1305394",
        "lat": "51.5218725"
      },
      "address": [
        "39-41 Gordon Square",
        "London",
        "WC1H 0PD",
        ""
      ]
    },
    "sitename": "Birkbeck Gordon Square, 43",
    "capacity": 27,
    "classification": "CR"
  },
  {
    "roomid": "321",
    "siteid": "181",
    "automated": "N",
    "roomname": "Birkbeck Gordon Square (43) 321",
    "location": {
      "coordinates": {
        "lng": "-0.1305394",
        "lat": "51.5218725"
      },
      "address": [
        "39-41 Gordon Square",
        "London",
        "WC1H 0PD",
        ""
      ]
    },
    "sitename": "Birkbeck Gordon Square, 43",
    "capacity": 18,
    "classification": "CR"
  },
  {
    "roomid": "322",
    "siteid": "181",
    "automated": "N",
    "roomname": "Birkbeck Gordon Square (43) 324",
    "location": {
      "coordinates": {
        "lng": "-0.1305394",
        "lat": "51.5218725"
      },
      "address": [
        "39-41 Gordon Square",
        "London",
        "WC1H 0PD",
        ""
      ]
    },
    "sitename": "Birkbeck Gordon Square, 43",
    "capacity": 24,
    "classification": "CR"
  },
  {
    "roomid": "324",
    "siteid": "181",
    "automated": "N",
    "roomname": "Birkbeck Gordon Square (43) 327",
    "location": {
      "coordinates": {
        "lng": "-0.1305394",
        "lat": "51.5218725"
      },
      "address": [
        "39-41 Gordon Square",
        "London",
        "WC1H 0PD",
        ""
      ]
    },
    "sitename": "Birkbeck Gordon Square, 43",
    "capacity": 20,
    "classification": "CR"
  },
  {
    "roomid": "B01",
    "siteid": "181",
    "automated": "N",
    "roomname": "Birkbeck Gordon Square (43) B01",
    "location": {
      "coordinates": {
        "lng": "-0.1305394",
        "lat": "51.5218725"
      },
      "address": [
        "39-41 Gordon Square",
        "London",
        "WC1H 0PD",
        ""
      ]
    },
    "sitename": "Birkbeck Gordon Square, 43",
    "capacity": 20,
    "classification": "CR"
  },
  {
    "roomid": "B06",
    "siteid": "181",
    "automated": "N",
    "roomname": "Birkbeck Gordon Square (43) B06",
    "location": {
      "coordinates": {
        "lng": "-0.1305394",
        "lat": "51.5218725"
      },
      "address": [
        "39-41 Gordon Square",
        "London",
        "WC1H 0PD",
        ""
      ]
    },
    "sitename": "Birkbeck Gordon Square, 43",
    "capacity": 24,
    "classification": "CR"
  },
  {
    "roomid": "B07",
    "siteid": "181",
    "automated": "N",
    "roomname": "Birkbeck Gordon Square (43) B07",
    "location": {
      "coordinates": {
        "lng": "-0.1305394",
        "lat": "51.5218725"
      },
      "address": [
        "39-41 Gordon Square",
        "London",
        "WC1H 0PD",
        ""
      ]
    },
    "sitename": "Birkbeck Gordon Square, 43",
    "capacity": 24,
    "classification": "CR"
  },
  {
    "roomid": "G01",
    "siteid": "181",
    "automated": "N",
    "roomname": "Birkbeck Gordon Square (43) G01",
    "location": {
      "coordinates": {
        "lng": "-0.1305394",
        "lat": "51.5218725"
      },
      "address": [
        "39-41 Gordon Square",
        "London",
        "WC1H 0PD",
        ""
      ]
    },
    "sitename": "Birkbeck Gordon Square, 43",
    "capacity": 28,
    "classification": "CR"
  },
  {
    "roomid": "G02",
    "siteid": "181",
    "automated": "N",
    "roomname": "Birkbeck Gordon Square (43) G02",
    "location": {
      "coordinates": {
        "lng": "-0.1305394",
        "lat": "51.5218725"
      },
      "address": [
        "39-41 Gordon Square",
        "London",
        "WC1H 0PD",
        ""
      ]
    },
    "sitename": "Birkbeck Gordon Square, 43",
    "capacity": 30,
    "classification": "CR"
  },
  {
    "roomid": "118",
    "siteid": "X402",
    "automated": "N",
    "roomname": "South Quad Pop Up Learning Hub 101",
    "location": {
      "coordinates": {
        "lng": "-0.133098",
        "lat": "51.523892"
      },
      "address": [
        "Gower St",
        "London",
        "",
        ""
      ]
    },
    "sitename": "South Quad Pop Up Learning Hub",
    "capacity": 25,
    "classification": "CR"
  },
  {
    "roomid": "G20",
    "siteid": "067",
    "automated": "N",
    "roomname": "Christopher Ingold Building G20 - Public Cluster",
    "location": {
      "coordinates": {
        "lng": "-0.132244",
        "lat": "51.525417"
      },
      "address": [
        "20 Gordon Street",
        "London",
        "WC1H 0AJ",
        ""
      ]
    },
    "sitename": "Christopher Ingold Building",
    "capacity": 61,
    "classification": "PC1"
  },
  {
    "roomid": "G15",
    "siteid": "042",
    "automated": "N",
    "roomname": "DMS Watson Building G15 - Public Cluster",
    "location": {
      "coordinates": {
        "lng": "-0.1324",
        "lat": "51.5233"
      },
      "address": [
        "Gower Street,",
        "London",
        "WC1E 6BT",
        ""
      ]
    },
    "sitename": "DMS Watson Building",
    "capacity": 35,
    "classification": "PC1"
  },
  {
    "roomid": "SPC",
    "siteid": "162",
    "automated": "N",
    "roomname": "IOE - Bedford Way (20) - L409 - The Space Observation Suite",
    "location": {
      "coordinates": {
        "lng": "-0.1285067",
        "lat": "51.523471"
      },
      "address": [
        "20 Bedford Way",
        "London",
        "WC1H 0AL",
        ""
      ]
    },
    "sitename": "IOE - Bedford Way, 20",
    "capacity": 20,
    "classification": "CFE"
  },
  {
    "roomid": "SPC",
    "siteid": "162",
    "automated": "N",
    "roomname": "IOE - Bedford Way (20) - L409 - The Space Observation Suite",
    "location": {
      "coordinates": {
        "lng": "-0.1285067",
        "lat": "51.523471"
      },
      "address": [
        "20 Bedford Way",
        "London",
        "WC1H 0AL",
        ""
      ]
    },
    "sitename": "IOE - Bedford Way, 20",
    "capacity": 20,
    "classification": "CR"
  },
  {
    "roomid": "SPC",
    "siteid": "162",
    "automated": "N",
    "roomname": "IOE - Bedford Way (20) - L409 - The Space Observation Suite",
    "location": {
      "coordinates": {
        "lng": "-0.1285067",
        "lat": "51.523471"
      },
      "address": [
        "20 Bedford Way",
        "London",
        "WC1H 0AL",
        ""
      ]
    },
    "sitename": "IOE - Bedford Way, 20",
    "capacity": 30,
    "classification": "TH"
  },
  {
    "roomid": "G02",
    "siteid": "037",
    "automated": "P",
    "roomname": "Medawar Building G02 Watson LT",
    "location": {
      "coordinates": {
        "lng": "-0.1323",
        "lat": "51.5235"
      },
      "address": [
        "Gower Street",
        "London",
        "WC1E 6BT",
        ""
      ]
    },
    "sitename": "Medawar Building",
    "capacity": 54,
    "classification": "LT"
  },
  {
    "roomid": "129",
    "siteid": "126",
    "automated": "P",
    "roomname": "Taviton (14) 129",
    "location": {
      "coordinates": {
        "lng": "-0.131761",
        "lat": "51.525342"
      },
      "address": [
        "15 Taviton Street",
        "London",
        "WC1H 0BW",
        ""
      ]
    },
    "sitename": "Taviton Street 14-16",
    "capacity": 16,
    "classification": "CR"
  },
  {
    "roomid": "130",
    "siteid": "126",
    "automated": "P",
    "roomname": "Taviton (14) 130",
    "location": {
      "coordinates": {
        "lng": "-0.131761",
        "lat": "51.525342"
      },
      "address": [
        "15 Taviton Street",
        "London",
        "WC1H 0BW",
        ""
      ]
    },
    "sitename": "Taviton Street 14-16",
    "capacity": 16,
    "classification": "CR"
  },
  {
    "roomid": "131",
    "siteid": "126",
    "automated": "P",
    "roomname": "Taviton (14) 131",
    "location": {
      "coordinates": {
        "lng": "-0.131761",
        "lat": "51.525342"
      },
      "address": [
        "15 Taviton Street",
        "London",
        "WC1H 0BW",
        ""
      ]
    },
    "sitename": "Taviton Street 14-16",
    "capacity": 16,
    "classification": "CR"
  },
  {
    "roomid": "790",
    "siteid": "162",
    "automated": "N",
    "roomname": "IOE - Bedford Way (20) - 790",
    "location": {
      "coordinates": {
        "lng": "-0.1285067",
        "lat": "51.523471"
      },
      "address": [
        "20 Bedford Way",
        "London",
        "WC1H 0AL",
        ""
      ]
    },
    "sitename": "IOE - Bedford Way, 20",
    "capacity": 20,
    "classification": "CFE"
  },
  {
    "roomid": "132",
    "siteid": "126",
    "automated": "P",
    "roomname": "Taviton (14) 132",
    "location": {
      "coordinates": {
        "lng": "-0.131761",
        "lat": "51.525342"
      },
      "address": [
        "15 Taviton Street",
        "London",
        "WC1H 0BW",
        ""
      ]
    },
    "sitename": "Taviton Street 14-16",
    "capacity": 16,
    "classification": "CR"
  },
  {
    "roomid": "345",
    "siteid": "126",
    "automated": "P",
    "roomname": "Taviton (16) 345",
    "location": {
      "coordinates": {
        "lng": "-0.131761",
        "lat": "51.525342"
      },
      "address": [
        "15 Taviton Street",
        "London",
        "WC1H 0BW",
        ""
      ]
    },
    "sitename": "Taviton Street 14-16",
    "capacity": 16,
    "classification": "CR"
  },
  {
    "roomid": "346",
    "siteid": "126",
    "automated": "P",
    "roomname": "Taviton (16) 346",
    "location": {
      "coordinates": {
        "lng": "-0.131761",
        "lat": "51.525342"
      },
      "address": [
        "15 Taviton Street",
        "London",
        "WC1H 0BW",
        ""
      ]
    },
    "sitename": "Taviton Street 14-16",
    "capacity": 16,
    "classification": "CR"
  },
  {
    "roomid": "535",
    "siteid": "126",
    "automated": "P",
    "roomname": "Taviton (16) 535",
    "location": {
      "coordinates": {
        "lng": "-0.131761",
        "lat": "51.525342"
      },
      "address": [
        "15 Taviton Street",
        "London",
        "WC1H 0BW",
        ""
      ]
    },
    "sitename": "Taviton Street 14-16",
    "capacity": 16,
    "classification": "CR"
  },
  {
    "roomid": "534",
    "siteid": "126",
    "automated": "P",
    "roomname": "Taviton (16) 534",
    "location": {
      "coordinates": {
        "lng": "-0.131761",
        "lat": "51.525342"
      },
      "address": [
        "15 Taviton Street",
        "London",
        "WC1H 0BW",
        ""
      ]
    },
    "sitename": "Taviton Street 14-16",
    "capacity": 16,
    "classification": "CR"
  },
  {
    "roomid": "9",
    "siteid": "012",
    "automated": "P",
    "roomname": "South Wing 9 Garwood LT",
    "location": {
      "coordinates": {
        "lng": "-0.13352",
        "lat": "51.524135"
      },
      "address": [
        "Gower Street,",
        "London",
        "WC1E 6BT",
        ""
      ]
    },
    "sitename": "South Wing",
    "capacity": 48,
    "classification": "LT"
  },
  {
    "roomid": "130",
    "siteid": "040",
    "automated": "P",
    "roomname": "Foster Court 130",
    "location": {
      "coordinates": {
        "lng": "-0.1326",
        "lat": "51.5237"
      },
      "address": [
        "Gower Street,",
        "London",
        "WC1E 6BT",
        ""
      ]
    },
    "sitename": "Foster Court",
    "capacity": 22,
    "classification": "CR"
  },
  {
    "roomid": "132",
    "siteid": "040",
    "automated": "P",
    "roomname": "Foster Court 132",
    "location": {
      "coordinates": {
        "lng": "-0.1326",
        "lat": "51.5237"
      },
      "address": [
        "Gower Street,",
        "London",
        "WC1E 6BT",
        ""
      ]
    },
    "sitename": "Foster Court",
    "capacity": 22,
    "classification": "CR"
  },
  {
    "roomid": "233",
    "siteid": "040",
    "automated": "P",
    "roomname": "Foster Court 233",
    "location": {
      "coordinates": {
        "lng": "-0.1326",
        "lat": "51.5237"
      },
      "address": [
        "Gower Street,",
        "London",
        "WC1E 6BT",
        ""
      ]
    },
    "sitename": "Foster Court",
    "capacity": 22,
    "classification": "CR"
  },
  {
    "roomid": "34",
    "siteid": "050",
    "automated": "P",
    "roomname": "Wilkins Garden Room",
    "location": {
      "coordinates": {
        "lng": "-0.1334268",
        "lat": "51.5247725"
      },
      "address": [
        "Gower Street,",
        "London",
        "WC1E 6BT",
        ""
      ]
    },
    "sitename": "Bernard Katz Building",
    "capacity": 20,
    "classification": "MR"
  },
  {
    "roomid": "433",
    "siteid": "126",
    "automated": "P",
    "roomname": "Taviton (16) 433",
    "location": {
      "coordinates": {
        "lng": "-0.131761",
        "lat": "51.525342"
      },
      "address": [
        "15 Taviton Street",
        "London",
        "WC1H 0BW",
        ""
      ]
    },
    "sitename": "Taviton Street 14-16",
    "capacity": 48,
    "classification": "CR"
  },
  {
    "roomid": "828",
    "siteid": "162",
    "automated": "N",
    "roomname": "IOE - Bedford Way (20) - 828",
    "location": {
      "coordinates": {
        "lng": "-0.1285067",
        "lat": "51.523471"
      },
      "address": [
        "20 Bedford Way",
        "London",
        "WC1H 0AL",
        ""
      ]
    },
    "sitename": "IOE - Bedford Way, 20",
    "capacity": 40,
    "classification": "CFE"
  },
  {
    "roomid": "305",
    "siteid": "162",
    "automated": "N",
    "roomname": "IOE - Bedford Way (20) - 305 - Clarke Hall",
    "location": {
      "coordinates": {
        "lng": "-0.1285067",
        "lat": "51.523471"
      },
      "address": [
        "20 Bedford Way",
        "London",
        "WC1H 0AL",
        ""
      ]
    },
    "sitename": "IOE - Bedford Way, 20",
    "capacity": 70,
    "classification": "TH"
  },
  {
    "roomid": "106",
    "siteid": "088",
    "automated": "P",
    "roomname": "Gordon House 106",
    "location": {
      "coordinates": {
        "lng": "-0.132013",
        "lat": "51.525004"
      },
      "address": [
        "29 Gordon Sq",
        "London",
        "WC1H 0PP",
        ""
      ]
    },
    "sitename": "Gordon House",
    "capacity": 50,
    "classification": "CR"
  },
  {
    "roomid": "B1.04",
    "siteid": "212",
    "automated": "A",
    "roomname": "Cruciform Building B1.04",
    "location": {
      "coordinates": {
        "lng": "-0.1346",
        "lat": "51.5241"
      },
      "address": [
        "Gower Street,",
        "London",
        "WC1E 6BT",
        ""
      ]
    },
    "sitename": "Cruciform Building",
    "capacity": 6,
    "classification": "CR"
  },
  {
    "roomid": "B1.05",
    "siteid": "212",
    "automated": "P",
    "roomname": "Cruciform Building B1.05",
    "location": {
      "coordinates": {
        "lng": "-0.1346",
        "lat": "51.5241"
      },
      "address": [
        "Gower Street,",
        "London",
        "WC1E 6BT",
        ""
      ]
    },
    "sitename": "Cruciform Building",
    "capacity": 18,
    "classification": "CR"
  },
  {
    "roomid": "B1.06",
    "siteid": "212",
    "automated": "A",
    "roomname": "Cruciform Building B1.06",
    "location": {
      "coordinates": {
        "lng": "-0.1346",
        "lat": "51.5241"
      },
      "address": [
        "Gower Street,",
        "London",
        "WC1E 6BT",
        ""
      ]
    },
    "sitename": "Cruciform Building",
    "capacity": 10,
    "classification": "CR"
  },
  {
    "roomid": "B1.07",
    "siteid": "212",
    "automated": "P",
    "roomname": "Cruciform Building B1.07",
    "location": {
      "coordinates": {
        "lng": "-0.1346",
        "lat": "51.5241"
      },
      "address": [
        "Gower Street,",
        "London",
        "WC1E 6BT",
        ""
      ]
    },
    "sitename": "Cruciform Building",
    "capacity": 18,
    "classification": "CR"
  },
  {
    "roomid": "B115A",
    "siteid": "212",
    "automated": "N",
    "roomname": "Cruciform Building B115A - Public Cluster",
    "location": {
      "coordinates": {
        "lng": "-0.1346",
        "lat": "51.5241"
      },
      "address": [
        "Gower Street,",
        "London",
        "WC1E 6BT",
        ""
      ]
    },
    "sitename": "Cruciform Building",
    "capacity": 50,
    "classification": "PC1"
  },
  {
    "roomid": "B308",
    "siteid": "212",
    "automated": "A",
    "roomname": "Cruciform Building B.3.08",
    "location": {
      "coordinates": {
        "lng": "-0.1346",
        "lat": "51.5241"
      },
      "address": [
        "Gower Street,",
        "London",
        "WC1E 6BT",
        ""
      ]
    },
    "sitename": "Cruciform Building",
    "capacity": 6,
    "classification": "CR"
  },
  {
    "roomid": "B304",
    "siteid": "212",
    "automated": "P",
    "roomname": "Cruciform Building B304 - LT1",
    "location": {
      "coordinates": {
        "lng": "-0.1346",
        "lat": "51.5241"
      },
      "address": [
        "Gower Street,",
        "London",
        "WC1E 6BT",
        ""
      ]
    },
    "sitename": "Cruciform Building",
    "capacity": 346,
    "classification": "LT"
  },
  {
    "roomid": "B404",
    "siteid": "212",
    "automated": "P",
    "roomname": "Cruciform Building B404 - LT2",
    "location": {
      "coordinates": {
        "lng": "-0.1346",
        "lat": "51.5241"
      },
      "address": [
        "Gower Street,",
        "London",
        "WC1E 6BT",
        ""
      ]
    },
    "sitename": "Cruciform Building",
    "capacity": 112,
    "classification": "LT"
  },
  {
    "roomid": "B26",
    "siteid": "025",
    "automated": "A",
    "roomname": "Gordon Square (25) B26",
    "location": {
      "coordinates": {
        "lng": "-0.13223",
        "lat": "51.524597"
      },
      "address": [
        "25 Gordon Square",
        "London",
        "WC1H 0AG",
        ""
      ]
    },
    "sitename": "Gordon Square, 25",
    "capacity": 8,
    "classification": "CR"
  },
  {
    "roomid": "404",
    "siteid": "180",
    "automated": "N",
    "roomname": "Birkbeck Malet Street 404/405",
    "location": {
      "coordinates": {
        "lng": "-0.1305394",
        "lat": "51.5218725"
      },
      "address": [
        "Malet Street",
        "London",
        "",
        ""
      ]
    },
    "sitename": "Birkbeck Malet Street",
    "capacity": 70,
    "classification": "PC1"
  },
  {
    "roomid": "423",
    "siteid": "180",
    "automated": "N",
    "roomname": "Birkbeck Malet Street 423",
    "location": {
      "coordinates": {
        "lng": "-0.1305394",
        "lat": "51.5218725"
      },
      "address": [
        "Malet Street",
        "London",
        "",
        ""
      ]
    },
    "sitename": "Birkbeck Malet Street",
    "capacity": 39,
    "classification": "PC1"
  },
  {
    "roomid": "B29",
    "siteid": "180",
    "automated": "N",
    "roomname": "Birkbeck Malet Street B29",
    "location": {
      "coordinates": {
        "lng": "-0.1305394",
        "lat": "51.5218725"
      },
      "address": [
        "Malet Street",
        "London",
        "",
        ""
      ]
    },
    "sitename": "Birkbeck Malet Street",
    "capacity": 30,
    "classification": "CR"
  },
  {
    "roomid": "B30",
    "siteid": "180",
    "automated": "N",
    "roomname": "Birkbeck Malet Street B30",
    "location": {
      "coordinates": {
        "lng": "-0.1305394",
        "lat": "51.5218725"
      },
      "address": [
        "Malet Street",
        "London",
        "",
        ""
      ]
    },
    "sitename": "Birkbeck Malet Street",
    "capacity": 40,
    "classification": "CR"
  },
  {
    "roomid": "B35",
    "siteid": "180",
    "automated": "N",
    "roomname": "Birkbeck Malet Street B35",
    "location": {
      "coordinates": {
        "lng": "-0.1305394",
        "lat": "51.5218725"
      },
      "address": [
        "Malet Street",
        "London",
        "",
        ""
      ]
    },
    "sitename": "Birkbeck Malet Street",
    "capacity": 125,
    "classification": "LT"
  },
  {
    "roomid": "B36",
    "siteid": "180",
    "automated": "N",
    "roomname": "Birkbeck Malet Street B36",
    "location": {
      "coordinates": {
        "lng": "-0.1305394",
        "lat": "51.5218725"
      },
      "address": [
        "Malet Street",
        "London",
        "",
        ""
      ]
    },
    "sitename": "Birkbeck Malet Street",
    "capacity": 123,
    "classification": "LT"
  },
  {
    "roomid": "B03",
    "siteid": "035",
    "automated": "P",
    "roomname": "Gordon Square (16-18) B03",
    "location": {
      "coordinates": {
        "lng": "-0.131769",
        "lat": "51.524183"
      },
      "address": [
        "16-18 Gordon Square",
        "London",
        "WC1H 0AG",
        ""
      ]
    },
    "sitename": "Gordon Square, 16-18",
    "capacity": 10,
    "classification": "CR"
  },
  {
    "roomid": "B02",
    "siteid": "035",
    "automated": "P",
    "roomname": "Gordon Square (16-18) B02",
    "location": {
      "coordinates": {
        "lng": "-0.131769",
        "lat": "51.524183"
      },
      "address": [
        "16-18 Gordon Square",
        "London",
        "WC1H 0AG",
        ""
      ]
    },
    "sitename": "Gordon Square, 16-18",
    "capacity": 10,
    "classification": "CR"
  },
  {
    "roomid": "532",
    "siteid": "126",
    "automated": "A",
    "roomname": "Taviton (16) 532",
    "location": {
      "coordinates": {
        "lng": "-0.131761",
        "lat": "51.525342"
      },
      "address": [
        "15 Taviton Street",
        "London",
        "WC1H 0BW",
        ""
      ]
    },
    "sitename": "Taviton Street 14-16",
    "capacity": 10,
    "classification": "CR"
  },
  {
    "roomid": "G01",
    "siteid": "035",
    "automated": "P",
    "roomname": "Gordon Square (16-18) G01",
    "location": {
      "coordinates": {
        "lng": "-0.131769",
        "lat": "51.524183"
      },
      "address": [
        "16-18 Gordon Square",
        "London",
        "WC1H 0AG",
        ""
      ]
    },
    "sitename": "Gordon Square, 16-18",
    "capacity": 12,
    "classification": "CR"
  },
  {
    "roomid": "G06",
    "siteid": "035",
    "automated": "P",
    "roomname": "Gordon Square (16-18) G06",
    "location": {
      "coordinates": {
        "lng": "-0.131769",
        "lat": "51.524183"
      },
      "address": [
        "16-18 Gordon Square",
        "London",
        "WC1H 0AG",
        ""
      ]
    },
    "sitename": "Gordon Square, 16-18",
    "capacity": 12,
    "classification": "CR"
  },
  {
    "roomid": "G09",
    "siteid": "035",
    "automated": "P",
    "roomname": "Gordon Square (16-18) G09",
    "location": {
      "coordinates": {
        "lng": "-0.131769",
        "lat": "51.524183"
      },
      "address": [
        "16-18 Gordon Square",
        "London",
        "WC1H 0AG",
        ""
      ]
    },
    "sitename": "Gordon Square, 16-18",
    "capacity": 12,
    "classification": "CR"
  },
  {
    "roomid": "B15",
    "siteid": "029",
    "automated": "P",
    "roomname": "Gordon Square (22) B15",
    "location": {
      "coordinates": {
        "lng": "-0.132056",
        "lat": "51.524445"
      },
      "address": [
        "22 Gordon Square",
        "London",
        "WC1H 0AG",
        ""
      ]
    },
    "sitename": "Gordon Square, 22",
    "capacity": 12,
    "classification": "CR"
  },
  {
    "roomid": "G10",
    "siteid": "024",
    "automated": "P",
    "roomname": "Gordon Square (26) G10",
    "location": {
      "coordinates": {
        "lng": "-0.132287",
        "lat": "51.524652"
      },
      "address": [
        "26 Gordon Square",
        "London",
        "WC1H 0AG",
        ""
      ]
    },
    "sitename": "Gordon Square, 26",
    "capacity": 12,
    "classification": "CR"
  },
  {
    "roomid": "XLG2",
    "siteid": "067",
    "automated": "P",
    "roomname": "Christopher Ingold Building XLG2 Auditorium",
    "location": {
      "coordinates": {
        "lng": "-0.132244",
        "lat": "51.525417"
      },
      "address": [
        "20 Gordon Street",
        "London",
        "WC1H 0AJ",
        ""
      ]
    },
    "sitename": "Christopher Ingold Building",
    "capacity": 325,
    "classification": "LT"
  },
  {
    "roomid": "675",
    "siteid": "162",
    "automated": "N",
    "roomname": "IOE - Bedford Way (20) - 675",
    "location": {
      "coordinates": {
        "lng": "-0.1285067",
        "lat": "51.523471"
      },
      "address": [
        "20 Bedford Way",
        "London",
        "WC1H 0AL",
        ""
      ]
    },
    "sitename": "IOE - Bedford Way, 20",
    "capacity": 30,
    "classification": "CFE"
  },
  {
    "roomid": "218",
    "siteid": "013",
    "automated": "P",
    "roomname": "Chadwick Building 2.18",
    "location": {
      "coordinates": {
        "lng": "-0.134127",
        "lat": "51.524128"
      },
      "address": [
        "Gower Street,",
        "London",
        "WC1E 6BT",
        ""
      ]
    },
    "sitename": "Chadwick Building",
    "capacity": 40,
    "classification": "CR"
  },
  {
    "roomid": "223",
    "siteid": "013",
    "automated": "N",
    "roomname": "Chadwick Building 2.23 - Public Cluster",
    "location": {
      "coordinates": {
        "lng": "-0.134127",
        "lat": "51.524128"
      },
      "address": [
        "Gower Street,",
        "London",
        "WC1E 6BT",
        ""
      ]
    },
    "sitename": "Chadwick Building",
    "capacity": 20,
    "classification": "PC1"
  },
  {
    "roomid": "B05",
    "siteid": "013",
    "automated": "P",
    "roomname": "Chadwick Building B05 LT",
    "location": {
      "coordinates": {
        "lng": "-0.134127",
        "lat": "51.524128"
      },
      "address": [
        "Gower Street,",
        "London",
        "WC1E 6BT",
        ""
      ]
    },
    "sitename": "Chadwick Building",
    "capacity": 94,
    "classification": "LT"
  },
  {
    "roomid": "A1",
    "siteid": "006",
    "automated": "P",
    "roomname": "Physics Building A1/3",
    "location": {
      "coordinates": {
        "lng": "-0.133585",
        "lat": "51.525345"
      },
      "address": [
        "Gower Street,",
        "London",
        "WC1E 6BT",
        ""
      ]
    },
    "sitename": "Physics Building",
    "capacity": 53,
    "classification": "LT"
  },
  {
    "roomid": "901",
    "siteid": "162",
    "automated": "N",
    "roomname": "IOE - Bedford Way (20) - 901",
    "location": {
      "coordinates": {
        "lng": "-0.1285067",
        "lat": "51.523471"
      },
      "address": [
        "20 Bedford Way",
        "London",
        "WC1H 0AL",
        ""
      ]
    },
    "sitename": "IOE - Bedford Way, 20",
    "capacity": 35,
    "classification": "TH"
  },
  {
    "roomid": "G07",
    "siteid": "013",
    "automated": "P",
    "roomname": "Chadwick Building G07",
    "location": {
      "coordinates": {
        "lng": "-0.134127",
        "lat": "51.524128"
      },
      "address": [
        "Gower Street,",
        "London",
        "WC1E 6BT",
        ""
      ]
    },
    "sitename": "Chadwick Building",
    "capacity": 58,
    "classification": "CR"
  },
  {
    "roomid": "104",
    "siteid": "162",
    "automated": "N",
    "roomname": "IOE - Bedford Way (20) - 104 - Elvin Hall",
    "location": {
      "coordinates": {
        "lng": "-0.1285067",
        "lat": "51.523471"
      },
      "address": [
        "20 Bedford Way",
        "London",
        "WC1H 0AL",
        ""
      ]
    },
    "sitename": "IOE - Bedford Way, 20",
    "capacity": 150,
    "classification": "TH"
  },
  {
    "roomid": "104",
    "siteid": "162",
    "automated": "N",
    "roomname": "IOE - Bedford Way (20) - 104 - Elvin Hall",
    "location": {
      "coordinates": {
        "lng": "-0.1285067",
        "lat": "51.523471"
      },
      "address": [
        "20 Bedford Way",
        "London",
        "WC1H 0AL",
        ""
      ]
    },
    "sitename": "IOE - Bedford Way, 20",
    "capacity": 100,
    "classification": "CFE"
  },
  {
    "roomid": "104",
    "siteid": "162",
    "automated": "N",
    "roomname": "IOE - Bedford Way (20) - 104 - Elvin Hall",
    "location": {
      "coordinates": {
        "lng": "-0.1285067",
        "lat": "51.523471"
      },
      "address": [
        "20 Bedford Way",
        "London",
        "WC1H 0AL",
        ""
      ]
    },
    "sitename": "IOE - Bedford Way, 20",
    "capacity": 80,
    "classification": "CR"
  },
  {
    "roomid": "001",
    "siteid": "014",
    "automated": "N",
    "roomname": "North Lodge 001",
    "location": {
      "coordinates": {
        "lng": "-0.134465",
        "lat": "51.524335"
      },
      "address": [
        "Gower Street",
        "London",
        "WC1E 6BT",
        ""
      ]
    },
    "sitename": "Front Lodges",
    "capacity": 10,
    "classification": "ER"
  },
  {
    "roomid": "115",
    "siteid": "X402",
    "automated": "N",
    "roomname": "South Quad Pop Up Learning Hub G01 LT",
    "location": {
      "coordinates": {
        "lng": "-0.133098",
        "lat": "51.523892"
      },
      "address": [
        "Gower St",
        "London",
        "",
        ""
      ]
    },
    "sitename": "South Quad Pop Up Learning Hub",
    "capacity": 100,
    "classification": "CR"
  },
  {
    "roomid": "116",
    "siteid": "X402",
    "automated": "N",
    "roomname": "South Quad Pop Up Learning Hub 103",
    "location": {
      "coordinates": {
        "lng": "-0.133098",
        "lat": "51.523892"
      },
      "address": [
        "Gower St",
        "London",
        "",
        ""
      ]
    },
    "sitename": "South Quad Pop Up Learning Hub",
    "capacity": 25,
    "classification": "CR"
  },
  {
    "roomid": "117",
    "siteid": "X402",
    "automated": "N",
    "roomname": "South Quad Pop Up Learning Hub 102",
    "location": {
      "coordinates": {
        "lng": "-0.133098",
        "lat": "51.523892"
      },
      "address": [
        "Gower St",
        "London",
        "",
        ""
      ]
    },
    "sitename": "South Quad Pop Up Learning Hub",
    "capacity": 25,
    "classification": "CR"
  },
  {
    "roomid": "421",
    "siteid": "045",
    "automated": "P",
    "roomname": "Roberts Building 421",
    "location": {
      "coordinates": {
        "lng": "-0.1321",
        "lat": "51.5229"
      },
      "address": [
        "Torrington Place",
        "London",
        "WC1E 7JE",
        ""
      ]
    },
    "sitename": "Roberts Building",
    "capacity": 94,
    "classification": "LT"
  },
  {
    "roomid": "422",
    "siteid": "045",
    "automated": "P",
    "roomname": "Roberts Building 422",
    "location": {
      "coordinates": {
        "lng": "-0.1321",
        "lat": "51.5229"
      },
      "address": [
        "Torrington Place",
        "London",
        "WC1E 7JE",
        ""
      ]
    },
    "sitename": "Roberts Building",
    "capacity": 60,
    "classification": "CR"
  },
  {
    "roomid": "790",
    "siteid": "162",
    "automated": "N",
    "roomname": "IOE - Bedford Way (20) - 790",
    "location": {
      "coordinates": {
        "lng": "-0.1285067",
        "lat": "51.523471"
      },
      "address": [
        "20 Bedford Way",
        "London",
        "WC1H 0AL",
        ""
      ]
    },
    "sitename": "IOE - Bedford Way, 20",
    "capacity": 20,
    "classification": "CR"
  },
  {
    "roomid": "790",
    "siteid": "162",
    "automated": "N",
    "roomname": "IOE - Bedford Way (20) - 790",
    "location": {
      "coordinates": {
        "lng": "-0.1285067",
        "lat": "51.523471"
      },
      "address": [
        "20 Bedford Way",
        "London",
        "WC1H 0AL",
        ""
      ]
    },
    "sitename": "IOE - Bedford Way, 20",
    "capacity": 30,
    "classification": "TH"
  },
  {
    "roomid": "802",
    "siteid": "162",
    "automated": "N",
    "roomname": "IOE - Bedford Way (20) - 802",
    "location": {
      "coordinates": {
        "lng": "-0.1285067",
        "lat": "51.523471"
      },
      "address": [
        "20 Bedford Way",
        "London",
        "WC1H 0AL",
        ""
      ]
    },
    "sitename": "IOE - Bedford Way, 20",
    "capacity": 46,
    "classification": "CFE"
  },
  {
    "roomid": "802",
    "siteid": "162",
    "automated": "N",
    "roomname": "IOE - Bedford Way (20) - 802",
    "location": {
      "coordinates": {
        "lng": "-0.1285067",
        "lat": "51.523471"
      },
      "address": [
        "20 Bedford Way",
        "London",
        "WC1H 0AL",
        ""
      ]
    },
    "sitename": "IOE - Bedford Way, 20",
    "capacity": 50,
    "classification": "CR"
  },
  {
    "roomid": "802",
    "siteid": "162",
    "automated": "N",
    "roomname": "IOE - Bedford Way (20) - 802",
    "location": {
      "coordinates": {
        "lng": "-0.1285067",
        "lat": "51.523471"
      },
      "address": [
        "20 Bedford Way",
        "London",
        "WC1H 0AL",
        ""
      ]
    },
    "sitename": "IOE - Bedford Way, 20",
    "capacity": 70,
    "classification": "TH"
  },
  {
    "roomid": "828",
    "siteid": "162",
    "automated": "N",
    "roomname": "IOE - Bedford Way (20) - 828",
    "location": {
      "coordinates": {
        "lng": "-0.1285067",
        "lat": "51.523471"
      },
      "address": [
        "20 Bedford Way",
        "London",
        "WC1H 0AL",
        ""
      ]
    },
    "sitename": "IOE - Bedford Way, 20",
    "capacity": 48,
    "classification": "CR"
  },
  {
    "roomid": "828",
    "siteid": "162",
    "automated": "N",
    "roomname": "IOE - Bedford Way (20) - 828",
    "location": {
      "coordinates": {
        "lng": "-0.1285067",
        "lat": "51.523471"
      },
      "address": [
        "20 Bedford Way",
        "London",
        "WC1H 0AL",
        ""
      ]
    },
    "sitename": "IOE - Bedford Way, 20",
    "capacity": 60,
    "classification": "TH"
  },
  {
    "roomid": "834",
    "siteid": "162",
    "automated": "N",
    "roomname": "IOE - Bedford Way (20) - 834",
    "location": {
      "coordinates": {
        "lng": "-0.1285067",
        "lat": "51.523471"
      },
      "address": [
        "20 Bedford Way",
        "London",
        "WC1H 0AL",
        ""
      ]
    },
    "sitename": "IOE - Bedford Way, 20",
    "capacity": 18,
    "classification": "CFE"
  },
  {
    "roomid": "834",
    "siteid": "162",
    "automated": "N",
    "roomname": "IOE - Bedford Way (20) - 834",
    "location": {
      "coordinates": {
        "lng": "-0.1285067",
        "lat": "51.523471"
      },
      "address": [
        "20 Bedford Way",
        "London",
        "WC1H 0AL",
        ""
      ]
    },
    "sitename": "IOE - Bedford Way, 20",
    "capacity": 20,
    "classification": "CR"
  },
  {
    "roomid": "834",
    "siteid": "162",
    "automated": "N",
    "roomname": "IOE - Bedford Way (20) - 834",
    "location": {
      "coordinates": {
        "lng": "-0.1285067",
        "lat": "51.523471"
      },
      "address": [
        "20 Bedford Way",
        "London",
        "WC1H 0AL",
        ""
      ]
    },
    "sitename": "IOE - Bedford Way, 20",
    "capacity": 25,
    "classification": "TH"
  },
  {
    "roomid": "836",
    "siteid": "162",
    "automated": "N",
    "roomname": "IOE - Bedford Way (20) - 836",
    "location": {
      "coordinates": {
        "lng": "-0.1285067",
        "lat": "51.523471"
      },
      "address": [
        "20 Bedford Way",
        "London",
        "WC1H 0AL",
        ""
      ]
    },
    "sitename": "IOE - Bedford Way, 20",
    "capacity": 18,
    "classification": "CFE"
  },
  {
    "roomid": "508",
    "siteid": "045",
    "automated": "P",
    "roomname": "Roberts Building 508",
    "location": {
      "coordinates": {
        "lng": "-0.1321",
        "lat": "51.5229"
      },
      "address": [
        "Torrington Place",
        "London",
        "WC1E 7JE",
        ""
      ]
    },
    "sitename": "Roberts Building",
    "capacity": 91,
    "classification": "LT"
  },
  {
    "roomid": "836",
    "siteid": "162",
    "automated": "N",
    "roomname": "IOE - Bedford Way (20) - 836",
    "location": {
      "coordinates": {
        "lng": "-0.1285067",
        "lat": "51.523471"
      },
      "address": [
        "20 Bedford Way",
        "London",
        "WC1H 0AL",
        ""
      ]
    },
    "sitename": "IOE - Bedford Way, 20",
    "capacity": 20,
    "classification": "CR"
  },
  {
    "roomid": "G02",
    "siteid": "045",
    "automated": "N",
    "roomname": "Roberts Building Foyer G02",
    "location": {
      "coordinates": {
        "lng": "-0.1321",
        "lat": "51.5229"
      },
      "address": [
        "Torrington Place",
        "London",
        "WC1E 7JE",
        ""
      ]
    },
    "sitename": "Roberts Building",
    "capacity": 150,
    "classification": "SS"
  },
  {
    "roomid": "G06",
    "siteid": "045",
    "automated": "P",
    "roomname": "Roberts Building G06 Sir Ambrose Fleming LT",
    "location": {
      "coordinates": {
        "lng": "-0.1321",
        "lat": "51.5229"
      },
      "address": [
        "Torrington Place",
        "London",
        "WC1E 7JE",
        ""
      ]
    },
    "sitename": "Roberts Building",
    "capacity": 181,
    "classification": "LT"
  },
  {
    "roomid": "836",
    "siteid": "162",
    "automated": "N",
    "roomname": "IOE - Bedford Way (20) - 836",
    "location": {
      "coordinates": {
        "lng": "-0.1285067",
        "lat": "51.523471"
      },
      "address": [
        "20 Bedford Way",
        "London",
        "WC1H 0AL",
        ""
      ]
    },
    "sitename": "IOE - Bedford Way, 20",
    "capacity": 25,
    "classification": "TH"
  },
  {
    "roomid": "901",
    "siteid": "162",
    "automated": "N",
    "roomname": "IOE - Bedford Way (20) - 901",
    "location": {
      "coordinates": {
        "lng": "-0.1285067",
        "lat": "51.523471"
      },
      "address": [
        "20 Bedford Way",
        "London",
        "WC1H 0AL",
        ""
      ]
    },
    "sitename": "IOE - Bedford Way, 20",
    "capacity": 25,
    "classification": "CFE"
  },
  {
    "roomid": "901",
    "siteid": "162",
    "automated": "N",
    "roomname": "IOE - Bedford Way (20) - 901",
    "location": {
      "coordinates": {
        "lng": "-0.1285067",
        "lat": "51.523471"
      },
      "address": [
        "20 Bedford Way",
        "London",
        "WC1H 0AL",
        ""
      ]
    },
    "sitename": "IOE - Bedford Way, 20",
    "capacity": 25,
    "classification": "CR"
  },
  {
    "roomid": "G08",
    "siteid": "005",
    "automated": "N",
    "roomname": "Wilkins Building (Main Building) South Cloisters",
    "location": {
      "coordinates": {
        "lng": "-0.13366",
        "lat": "51.524699"
      },
      "address": [
        "Gower Street",
        "London",
        "WC1E 6BT",
        ""
      ]
    },
    "sitename": "Main Building",
    "capacity": 240,
    "classification": "SS"
  },
  {
    "roomid": "G09D",
    "siteid": "005",
    "automated": "N",
    "roomname": "Wilkins Building (Main Building) Whistler Room",
    "location": {
      "coordinates": {
        "lng": "-0.13366",
        "lat": "51.524699"
      },
      "address": [
        "Gower Street",
        "London",
        "WC1E 6BT",
        ""
      ]
    },
    "sitename": "Main Building",
    "capacity": 10,
    "classification": "CF"
  },
  {
    "roomid": "333",
    "siteid": "374",
    "automated": "P",
    "roomname": "Rockefeller Building 333",
    "location": {
      "coordinates": {
        "lng": "-0.134937",
        "lat": "51.523504"
      },
      "address": [
        "74 Huntley Street",
        "London",
        "WC1E 6AU",
        ""
      ]
    },
    "sitename": "Medical School Building",
    "capacity": 20,
    "classification": "CR"
  },
  {
    "roomid": "336",
    "siteid": "374",
    "automated": "P",
    "roomname": "Rockefeller Building 336",
    "location": {
      "coordinates": {
        "lng": "-0.134937",
        "lat": "51.523504"
      },
      "address": [
        "74 Huntley Street",
        "London",
        "WC1E 6AU",
        ""
      ]
    },
    "sitename": "Medical School Building",
    "capacity": 12,
    "classification": "CR"
  },
  {
    "roomid": "B10",
    "siteid": "035",
    "automated": "P",
    "roomname": "Gordon Square (16-18) B10",
    "location": {
      "coordinates": {
        "lng": "-0.131769",
        "lat": "51.524183"
      },
      "address": [
        "16-18 Gordon Square",
        "London",
        "WC1H 0AG",
        ""
      ]
    },
    "sitename": "Gordon Square, 16-18",
    "capacity": 16,
    "classification": "CR"
  },
  {
    "roomid": "B09",
    "siteid": "035",
    "automated": "P",
    "roomname": "Gordon Square (16-18) B09",
    "location": {
      "coordinates": {
        "lng": "-0.131769",
        "lat": "51.524183"
      },
      "address": [
        "16-18 Gordon Square",
        "London",
        "WC1H 0AG",
        ""
      ]
    },
    "sitename": "Gordon Square, 16-18",
    "capacity": 16,
    "classification": "CR"
  },
  {
    "roomid": "G09",
    "siteid": "024",
    "automated": "P",
    "roomname": "Gordon Square (26) G09",
    "location": {
      "coordinates": {
        "lng": "-0.132287",
        "lat": "51.524652"
      },
      "address": [
        "26 Gordon Square",
        "London",
        "WC1H 0AG",
        ""
      ]
    },
    "sitename": "Gordon Square, 26",
    "capacity": 16,
    "classification": "CR"
  },
  {
    "roomid": "G08",
    "siteid": "045",
    "automated": "P",
    "roomname": "Roberts Building G08 Sir David Davies LT",
    "location": {
      "coordinates": {
        "lng": "-0.1321",
        "lat": "51.5229"
      },
      "address": [
        "Torrington Place",
        "London",
        "WC1E 7JE",
        ""
      ]
    },
    "sitename": "Roberts Building",
    "capacity": 99,
    "classification": "LT"
  },
  {
    "roomid": "G14",
    "siteid": "012",
    "automated": "P",
    "roomname": "South Wing G14 Committee Room",
    "location": {
      "coordinates": {
        "lng": "-0.13352",
        "lat": "51.524135"
      },
      "address": [
        "Gower Street,",
        "London",
        "WC1E 6BT",
        ""
      ]
    },
    "sitename": "South Wing",
    "capacity": 16,
    "classification": "MR"
  },
  {
    "roomid": "128",
    "siteid": "126",
    "automated": "P",
    "roomname": "Taviton (14) 128",
    "location": {
      "coordinates": {
        "lng": "-0.131761",
        "lat": "51.525342"
      },
      "address": [
        "15 Taviton Street",
        "London",
        "WC1H 0BW",
        ""
      ]
    },
    "sitename": "Taviton Street 14-16",
    "capacity": 16,
    "classification": "CR"
  },
  {
    "roomid": "500",
    "siteid": "002",
    "automated": "P",
    "roomname": "Gordon Street (25) Maths 500",
    "location": {
      "coordinates": {
        "lng": "-0.133317",
        "lat": "51.5257"
      },
      "address": [
        "25 Gordon Street",
        "London",
        "WC1H 0AY",
        ""
      ]
    },
    "sitename": "Gordon Street, 25",
    "capacity": 70,
    "classification": "LT"
  },
  {
    "roomid": "103",
    "siteid": "002",
    "automated": "P",
    "roomname": "Gordon Street (25) D103",
    "location": {
      "coordinates": {
        "lng": "-0.133317",
        "lat": "51.5257"
      },
      "address": [
        "25 Gordon Street",
        "London",
        "WC1H 0AY",
        ""
      ]
    },
    "sitename": "Gordon Street, 25",
    "capacity": 71,
    "classification": "LT"
  },
  {
    "roomid": "G46",
    "siteid": "016",
    "automated": "P",
    "roomname": "Medical Sciences G46 H O Schild Pharmacology LT",
    "location": {
      "coordinates": {
        "lng": "-0.133306",
        "lat": "51.523755"
      },
      "address": [
        "Gower Street",
        "London",
        "WC1E 6BT",
        ""
      ]
    },
    "sitename": "Medical Sciences and Anatomy",
    "capacity": 73,
    "classification": "LT"
  },
  {
    "roomid": "115",
    "siteid": "086",
    "automated": "P",
    "roomname": "Torrington (1-19) 115 Galton LT",
    "location": {
      "coordinates": {
        "lng": "-0.1346",
        "lat": "51.521735"
      },
      "address": [
        "1-19 Torrington Place",
        "London",
        "WC1E 7HB",
        ""
      ]
    },
    "sitename": "Torrington Place, 1-19",
    "capacity": 77,
    "classification": "LT"
  },
  {
    "roomid": "347",
    "siteid": "126",
    "automated": "P",
    "roomname": "Taviton (16) 347",
    "location": {
      "coordinates": {
        "lng": "-0.131761",
        "lat": "51.525342"
      },
      "address": [
        "15 Taviton Street",
        "London",
        "WC1H 0BW",
        ""
      ]
    },
    "sitename": "Taviton Street 14-16",
    "capacity": 78,
    "classification": "CR"
  },
  {
    "roomid": "G04",
    "siteid": "016",
    "automated": "P",
    "roomname": "Anatomy G04 Gavin de Beer LT",
    "location": {
      "coordinates": {
        "lng": "-0.133306",
        "lat": "51.523755"
      },
      "address": [
        "Gower Street",
        "London",
        "WC1E 6BT",
        ""
      ]
    },
    "sitename": "Medical Sciences and Anatomy",
    "capacity": 82,
    "classification": "LT"
  },
  {
    "roomid": "505",
    "siteid": "002",
    "automated": "P",
    "roomname": "Gordon Street (25) Maths 505",
    "location": {
      "coordinates": {
        "lng": "-0.133317",
        "lat": "51.5257"
      },
      "address": [
        "25 Gordon Street",
        "London",
        "WC1H 0AY",
        ""
      ]
    },
    "sitename": "Gordon Street, 25",
    "capacity": 86,
    "classification": "LT"
  },
  {
    "roomid": "B17",
    "siteid": "086",
    "automated": "P",
    "roomname": "Torrington (1-19) B17 Basement LT",
    "location": {
      "coordinates": {
        "lng": "-0.1346",
        "lat": "51.521735"
      },
      "address": [
        "1-19 Torrington Place",
        "London",
        "WC1E 7HB",
        ""
      ]
    },
    "sitename": "Torrington Place, 1-19",
    "capacity": 92,
    "classification": "LT"
  },
  {
    "roomid": "E28",
    "siteid": "002",
    "automated": "P",
    "roomname": "Gordon Street (25) E28 Harrie Massey LT",
    "location": {
      "coordinates": {
        "lng": "-0.133317",
        "lat": "51.5257"
      },
      "address": [
        "25 Gordon Street",
        "London",
        "WC1H 0AY",
        ""
      ]
    },
    "sitename": "Gordon Street, 25",
    "capacity": 150,
    "classification": "LT"
  },
  {
    "roomid": "131",
    "siteid": "016",
    "automated": "P",
    "roomname": "Medical Sciences 131 A V Hill LT",
    "location": {
      "coordinates": {
        "lng": "-0.133306",
        "lat": "51.523755"
      },
      "address": [
        "Gower Street",
        "London",
        "WC1E 6BT",
        ""
      ]
    },
    "sitename": "Medical Sciences and Anatomy",
    "capacity": 176,
    "classification": "LT"
  },
  {
    "roomid": "G29",
    "siteid": "016",
    "automated": "P",
    "roomname": "Anatomy G29 J Z Young LT",
    "location": {
      "coordinates": {
        "lng": "-0.133306",
        "lat": "51.523755"
      },
      "address": [
        "Gower Street",
        "London",
        "WC1E 6BT",
        ""
      ]
    },
    "sitename": "Medical Sciences and Anatomy",
    "capacity": 186,
    "classification": "LT"
  },
  {
    "roomid": "SB1",
    "siteid": "363",
    "automated": "N",
    "roomname": "Tottenham Court Road (188) Room 01",
    "location": {
      "coordinates": {
        "lng": "-0.1354",
        "lat": "51.5219"
      },
      "address": [
        "188 Tottenham Court Road",
        "London",
        "W1T 7PH",
        ""
      ]
    },
    "sitename": "Tottenham Court Road, 188",
    "capacity": 34,
    "classification": "CR"
  },
  {
    "roomid": "SB3",
    "siteid": "363",
    "automated": "N",
    "roomname": "Tottenham Court Road (188) Room 03",
    "location": {
      "coordinates": {
        "lng": "-0.1354",
        "lat": "51.5219"
      },
      "address": [
        "188 Tottenham Court Road",
        "London",
        "W1T 7PH",
        ""
      ]
    },
    "sitename": "Tottenham Court Road, 188",
    "capacity": 28,
    "classification": "CR"
  },
  {
    "roomid": "SB4",
    "siteid": "363",
    "automated": "N",
    "roomname": "Tottenham Court Road (188) Room 04",
    "location": {
      "coordinates": {
        "lng": "-0.1354",
        "lat": "51.5219"
      },
      "address": [
        "188 Tottenham Court Road",
        "London",
        "W1T 7PH",
        ""
      ]
    },
    "sitename": "Tottenham Court Road, 188",
    "capacity": 44,
    "classification": "CR"
  },
  {
    "roomid": "SB2",
    "siteid": "363",
    "automated": "N",
    "roomname": "Tottenham Court Road (188) Room 02",
    "location": {
      "coordinates": {
        "lng": "-0.1354",
        "lat": "51.5219"
      },
      "address": [
        "188 Tottenham Court Road",
        "London",
        "W1T 7PH",
        ""
      ]
    },
    "sitename": "Tottenham Court Road, 188",
    "capacity": 28,
    "classification": "CR"
  },
  {
    "roomid": "SB5",
    "siteid": "363",
    "automated": "N",
    "roomname": "Tottenham Court Road (188) Room 05",
    "location": {
      "coordinates": {
        "lng": "-0.1354",
        "lat": "51.5219"
      },
      "address": [
        "188 Tottenham Court Road",
        "London",
        "W1T 7PH",
        ""
      ]
    },
    "sitename": "Tottenham Court Road, 188",
    "capacity": 64,
    "classification": "CR"
  },
  {
    "roomid": "420",
    "siteid": "162",
    "automated": "N",
    "roomname": "IOE - Bedford Way (20) - 420 - Committee Room 3",
    "location": {
      "coordinates": {
        "lng": "-0.1285067",
        "lat": "51.523471"
      },
      "address": [
        "20 Bedford Way",
        "London",
        "WC1H 0AL",
        ""
      ]
    },
    "sitename": "IOE - Bedford Way, 20",
    "capacity": 15,
    "classification": "CR"
  },
  {
    "roomid": "418",
    "siteid": "162",
    "automated": "N",
    "roomname": "IOE - Bedford Way (20) - 418 - Committee Room 2",
    "location": {
      "coordinates": {
        "lng": "-0.1285067",
        "lat": "51.523471"
      },
      "address": [
        "20 Bedford Way",
        "London",
        "WC1H 0AL",
        ""
      ]
    },
    "sitename": "IOE - Bedford Way, 20",
    "capacity": 25,
    "classification": "CR"
  },
  {
    "roomid": "418",
    "siteid": "162",
    "automated": "N",
    "roomname": "IOE - Bedford Way (20) - 418 - Committee Room 2",
    "location": {
      "coordinates": {
        "lng": "-0.1285067",
        "lat": "51.523471"
      },
      "address": [
        "20 Bedford Way",
        "London",
        "WC1H 0AL",
        ""
      ]
    },
    "sitename": "IOE - Bedford Way, 20",
    "capacity": 35,
    "classification": "TH"
  },
  {
    "roomid": "420",
    "siteid": "162",
    "automated": "N",
    "roomname": "IOE - Bedford Way (20) - 420 - Committee Room 3",
    "location": {
      "coordinates": {
        "lng": "-0.1285067",
        "lat": "51.523471"
      },
      "address": [
        "20 Bedford Way",
        "London",
        "WC1H 0AL",
        ""
      ]
    },
    "sitename": "IOE - Bedford Way, 20",
    "capacity": 12,
    "classification": "CFE"
  },
  {
    "roomid": "421",
    "siteid": "162",
    "automated": "N",
    "roomname": "IOE - Bedford Way (20) - 421 - Nunn Hall",
    "location": {
      "coordinates": {
        "lng": "-0.1285067",
        "lat": "51.523471"
      },
      "address": [
        "20 Bedford Way",
        "London",
        "WC1H 0AL",
        ""
      ]
    },
    "sitename": "IOE - Bedford Way, 20",
    "capacity": 50,
    "classification": "CR"
  },
  {
    "roomid": "419",
    "siteid": "162",
    "automated": "N",
    "roomname": "IOE - Bedford Way (20) - 419",
    "location": {
      "coordinates": {
        "lng": "-0.1285067",
        "lat": "51.523471"
      },
      "address": [
        "20 Bedford Way",
        "London",
        "WC1H 0AL",
        ""
      ]
    },
    "sitename": "IOE - Bedford Way, 20",
    "capacity": 2,
    "classification": "MR"
  },
  {
    "roomid": "420",
    "siteid": "162",
    "automated": "N",
    "roomname": "IOE - Bedford Way (20) - 420 - Committee Room 3",
    "location": {
      "coordinates": {
        "lng": "-0.1285067",
        "lat": "51.523471"
      },
      "address": [
        "20 Bedford Way",
        "London",
        "WC1H 0AL",
        ""
      ]
    },
    "sitename": "IOE - Bedford Way, 20",
    "capacity": 20,
    "classification": "TH"
  },
  {
    "roomid": "421",
    "siteid": "162",
    "automated": "N",
    "roomname": "IOE - Bedford Way (20) - 421 - Nunn Hall",
    "location": {
      "coordinates": {
        "lng": "-0.1285067",
        "lat": "51.523471"
      },
      "address": [
        "20 Bedford Way",
        "London",
        "WC1H 0AL",
        ""
      ]
    },
    "sitename": "IOE - Bedford Way, 20",
    "capacity": 60,
    "classification": "CFE"
  },
  {
    "roomid": "421",
    "siteid": "162",
    "automated": "N",
    "roomname": "IOE - Bedford Way (20) - 421 - Nunn Hall",
    "location": {
      "coordinates": {
        "lng": "-0.1285067",
        "lat": "51.523471"
      },
      "address": [
        "20 Bedford Way",
        "London",
        "WC1H 0AL",
        ""
      ]
    },
    "sitename": "IOE - Bedford Way, 20",
    "capacity": 100,
    "classification": "TH"
  },
  {
    "roomid": "PC2",
    "siteid": "162",
    "automated": "N",
    "roomname": "IOE - Bedford Way (20) - 425 - PC Lab 2",
    "location": {
      "coordinates": {
        "lng": "-0.1285067",
        "lat": "51.523471"
      },
      "address": [
        "20 Bedford Way",
        "London",
        "WC1H 0AL",
        ""
      ]
    },
    "sitename": "IOE - Bedford Way, 20",
    "capacity": 25,
    "classification": "PC1"
  },
  {
    "roomid": "803",
    "siteid": "162",
    "automated": "N",
    "roomname": "IOE - Bedford Way (20) - 803",
    "location": {
      "coordinates": {
        "lng": "-0.1285067",
        "lat": "51.523471"
      },
      "address": [
        "20 Bedford Way",
        "London",
        "WC1H 0AL",
        ""
      ]
    },
    "sitename": "IOE - Bedford Way, 20",
    "capacity": 12,
    "classification": "CFE"
  },
  {
    "roomid": "803",
    "siteid": "162",
    "automated": "N",
    "roomname": "IOE - Bedford Way (20) - 803",
    "location": {
      "coordinates": {
        "lng": "-0.1285067",
        "lat": "51.523471"
      },
      "address": [
        "20 Bedford Way",
        "London",
        "WC1H 0AL",
        ""
      ]
    },
    "sitename": "IOE - Bedford Way, 20",
    "capacity": 10,
    "classification": "CR"
  },
  {
    "roomid": "501",
    "siteid": "090",
    "automated": "N",
    "roomname": "Archaeology 501 - Public Cluster",
    "location": {
      "coordinates": {
        "lng": "-0.131632",
        "lat": "51.524973"
      },
      "address": [
        "31-34 Gordon Square",
        "London,",
        "WC1H 0PY",
        ""
      ]
    },
    "sitename": "Institute of Archaeology",
    "capacity": 11,
    "classification": "PC1"
  },
  {
    "roomid": "804",
    "siteid": "162",
    "automated": "N",
    "roomname": "IOE - Bedford Way (20) - 804",
    "location": {
      "coordinates": {
        "lng": "-0.1285067",
        "lat": "51.523471"
      },
      "address": [
        "20 Bedford Way",
        "London",
        "WC1H 0AL",
        ""
      ]
    },
    "sitename": "IOE - Bedford Way, 20",
    "capacity": 48,
    "classification": "CR"
  },
  {
    "roomid": "803",
    "siteid": "162",
    "automated": "N",
    "roomname": "IOE - Bedford Way (20) - 803",
    "location": {
      "coordinates": {
        "lng": "-0.1285067",
        "lat": "51.523471"
      },
      "address": [
        "20 Bedford Way",
        "London",
        "WC1H 0AL",
        ""
      ]
    },
    "sitename": "IOE - Bedford Way, 20",
    "capacity": 20,
    "classification": "TH"
  },
  {
    "roomid": "804",
    "siteid": "162",
    "automated": "N",
    "roomname": "IOE - Bedford Way (20) - 804",
    "location": {
      "coordinates": {
        "lng": "-0.1285067",
        "lat": "51.523471"
      },
      "address": [
        "20 Bedford Way",
        "London",
        "WC1H 0AL",
        ""
      ]
    },
    "sitename": "IOE - Bedford Way, 20",
    "capacity": 40,
    "classification": "CFE"
  },
  {
    "roomid": "804",
    "siteid": "162",
    "automated": "N",
    "roomname": "IOE - Bedford Way (20) - 804",
    "location": {
      "coordinates": {
        "lng": "-0.1285067",
        "lat": "51.523471"
      },
      "address": [
        "20 Bedford Way",
        "London",
        "WC1H 0AL",
        ""
      ]
    },
    "sitename": "IOE - Bedford Way, 20",
    "capacity": 60,
    "classification": "TH"
  },
  {
    "roomid": "805",
    "siteid": "162",
    "automated": "N",
    "roomname": "IOE - Bedford Way (20) - 805",
    "location": {
      "coordinates": {
        "lng": "-0.1285067",
        "lat": "51.523471"
      },
      "address": [
        "20 Bedford Way",
        "London",
        "WC1H 0AL",
        ""
      ]
    },
    "sitename": "IOE - Bedford Way, 20",
    "capacity": 10,
    "classification": "CFE"
  },
  {
    "roomid": "805",
    "siteid": "162",
    "automated": "N",
    "roomname": "IOE - Bedford Way (20) - 805",
    "location": {
      "coordinates": {
        "lng": "-0.1285067",
        "lat": "51.523471"
      },
      "address": [
        "20 Bedford Way",
        "London",
        "WC1H 0AL",
        ""
      ]
    },
    "sitename": "IOE - Bedford Way, 20",
    "capacity": 12,
    "classification": "MR"
  },
  {
    "roomid": "822",
    "siteid": "162",
    "automated": "N",
    "roomname": "IOE - Bedford Way (20) - 822",
    "location": {
      "coordinates": {
        "lng": "-0.1285067",
        "lat": "51.523471"
      },
      "address": [
        "20 Bedford Way",
        "London",
        "WC1H 0AL",
        ""
      ]
    },
    "sitename": "IOE - Bedford Way, 20",
    "capacity": 46,
    "classification": "CFE"
  },
  {
    "roomid": "822",
    "siteid": "162",
    "automated": "N",
    "roomname": "IOE - Bedford Way (20) - 822",
    "location": {
      "coordinates": {
        "lng": "-0.1285067",
        "lat": "51.523471"
      },
      "address": [
        "20 Bedford Way",
        "London",
        "WC1H 0AL",
        ""
      ]
    },
    "sitename": "IOE - Bedford Way, 20",
    "capacity": 50,
    "classification": "CR"
  },
  {
    "roomid": "B29",
    "siteid": "040",
    "automated": "N",
    "roomname": "Foster Court B29 - Public Cluster",
    "location": {
      "coordinates": {
        "lng": "-0.1326",
        "lat": "51.5237"
      },
      "address": [
        "Gower Street,",
        "London",
        "WC1E 6BT",
        ""
      ]
    },
    "sitename": "Foster Court",
    "capacity": 58,
    "classification": "PC1"
  },
  {
    "roomid": "203",
    "siteid": "028",
    "automated": "N",
    "roomname": "Gordon Square (23) 203 - Public Cluster",
    "location": {
      "coordinates": {
        "lng": "-0.132115",
        "lat": "51.524497"
      },
      "address": [
        "23 Gordon Square",
        "London",
        "WC1H 0AG",
        ""
      ]
    },
    "sitename": "Gordon Square, 23",
    "capacity": 11,
    "classification": "PC1"
  },
  {
    "roomid": "105",
    "siteid": "002",
    "automated": "N",
    "roomname": "Gordon Street (25) 105 - Public Cluster",
    "location": {
      "coordinates": {
        "lng": "-0.133317",
        "lat": "51.5257"
      },
      "address": [
        "25 Gordon Street",
        "London",
        "WC1H 0AY",
        ""
      ]
    },
    "sitename": "Gordon Street, 25",
    "capacity": 45,
    "classification": "PC1"
  },
  {
    "roomid": "113",
    "siteid": "086",
    "automated": "N",
    "roomname": "Torrington (1-19) 113 - Public Cluster",
    "location": {
      "coordinates": {
        "lng": "-0.1346",
        "lat": "51.521735"
      },
      "address": [
        "1-19 Torrington Place",
        "London",
        "WC1E 7HB",
        ""
      ]
    },
    "sitename": "Torrington Place, 1-19",
    "capacity": 65,
    "classification": "PC1"
  },
  {
    "roomid": "B03",
    "siteid": "032",
    "automated": "P",
    "roomname": "Gordon Square (20) B03 Sem 1",
    "location": {
      "coordinates": {
        "lng": "-0.131946",
        "lat": "51.524339"
      },
      "address": [
        "20 Gordon Square",
        "London",
        "WC1H 0AG",
        ""
      ]
    },
    "sitename": "Gordon Square, 20",
    "capacity": 14,
    "classification": "CR"
  },
  {
    "roomid": "822",
    "siteid": "162",
    "automated": "N",
    "roomname": "IOE - Bedford Way (20) - 822",
    "location": {
      "coordinates": {
        "lng": "-0.1285067",
        "lat": "51.523471"
      },
      "address": [
        "20 Bedford Way",
        "London",
        "WC1H 0AL",
        ""
      ]
    },
    "sitename": "IOE - Bedford Way, 20",
    "capacity": 70,
    "classification": "TH"
  },
  {
    "roomid": "826",
    "siteid": "162",
    "automated": "N",
    "roomname": "IOE - Bedford Way (20) - 826",
    "location": {
      "coordinates": {
        "lng": "-0.1285067",
        "lat": "51.523471"
      },
      "address": [
        "20 Bedford Way",
        "London",
        "WC1H 0AL",
        ""
      ]
    },
    "sitename": "IOE - Bedford Way, 20",
    "capacity": 20,
    "classification": "CFE"
  },
  {
    "roomid": "826",
    "siteid": "162",
    "automated": "N",
    "roomname": "IOE - Bedford Way (20) - 826",
    "location": {
      "coordinates": {
        "lng": "-0.1285067",
        "lat": "51.523471"
      },
      "address": [
        "20 Bedford Way",
        "London",
        "WC1H 0AL",
        ""
      ]
    },
    "sitename": "IOE - Bedford Way, 20",
    "capacity": 20,
    "classification": "CR"
  },
  {
    "roomid": "826",
    "siteid": "162",
    "automated": "N",
    "roomname": "IOE - Bedford Way (20) - 826",
    "location": {
      "coordinates": {
        "lng": "-0.1285067",
        "lat": "51.523471"
      },
      "address": [
        "20 Bedford Way",
        "London",
        "WC1H 0AL",
        ""
      ]
    },
    "sitename": "IOE - Bedford Way, 20",
    "capacity": 30,
    "classification": "TH"
  },
  {
    "roomid": "102",
    "siteid": "028",
    "automated": "P",
    "roomname": "Gordon Square (23) 102",
    "location": {
      "coordinates": {
        "lng": "-0.132115",
        "lat": "51.524497"
      },
      "address": [
        "23 Gordon Square",
        "London",
        "WC1H 0AG",
        ""
      ]
    },
    "sitename": "Gordon Square, 23",
    "capacity": 14,
    "classification": "CR"
  },
  {
    "roomid": "123",
    "siteid": "040",
    "automated": "P",
    "roomname": "Foster Court 123",
    "location": {
      "coordinates": {
        "lng": "-0.1326",
        "lat": "51.5237"
      },
      "address": [
        "Gower Street,",
        "London",
        "WC1E 6BT",
        ""
      ]
    },
    "sitename": "Foster Court",
    "capacity": 15,
    "classification": "CR"
  },
  {
    "roomid": "PC3",
    "siteid": "162",
    "automated": "N",
    "roomname": "IOE - Bedford Way (20) - 427 - PC Lab 3",
    "location": {
      "coordinates": {
        "lng": "-0.1285067",
        "lat": "51.523471"
      },
      "address": [
        "20 Bedford Way",
        "London",
        "WC1H 0AL",
        ""
      ]
    },
    "sitename": "IOE - Bedford Way, 20",
    "capacity": 16,
    "classification": "PC1"
  },
  {
    "roomid": "217",
    "siteid": "040",
    "automated": "P",
    "roomname": "Foster Court 217",
    "location": {
      "coordinates": {
        "lng": "-0.1326",
        "lat": "51.5237"
      },
      "address": [
        "Gower Street,",
        "London",
        "WC1E 6BT",
        ""
      ]
    },
    "sitename": "Foster Court",
    "capacity": 15,
    "classification": "CR"
  },
  {
    "roomid": "219",
    "siteid": "040",
    "automated": "P",
    "roomname": "Foster Court 219",
    "location": {
      "coordinates": {
        "lng": "-0.1326",
        "lat": "51.5237"
      },
      "address": [
        "Gower Street,",
        "London",
        "WC1E 6BT",
        ""
      ]
    },
    "sitename": "Foster Court",
    "capacity": 15,
    "classification": "CR"
  },
  {
    "roomid": "746",
    "siteid": "162",
    "automated": "N",
    "roomname": "IOE - Bedford Way (20) - 746",
    "location": {
      "coordinates": {
        "lng": "-0.1285067",
        "lat": "51.523471"
      },
      "address": [
        "20 Bedford Way",
        "London",
        "WC1H 0AL",
        ""
      ]
    },
    "sitename": "IOE - Bedford Way, 20",
    "capacity": 18,
    "classification": "CFE"
  },
  {
    "roomid": "746",
    "siteid": "162",
    "automated": "N",
    "roomname": "IOE - Bedford Way (20) - 746",
    "location": {
      "coordinates": {
        "lng": "-0.1285067",
        "lat": "51.523471"
      },
      "address": [
        "20 Bedford Way",
        "London",
        "WC1H 0AL",
        ""
      ]
    },
    "sitename": "IOE - Bedford Way, 20",
    "capacity": 20,
    "classification": "CR"
  },
  {
    "roomid": "746",
    "siteid": "162",
    "automated": "N",
    "roomname": "IOE - Bedford Way (20) - 746",
    "location": {
      "coordinates": {
        "lng": "-0.1285067",
        "lat": "51.523471"
      },
      "address": [
        "20 Bedford Way",
        "London",
        "WC1H 0AL",
        ""
      ]
    },
    "sitename": "IOE - Bedford Way, 20",
    "capacity": 25,
    "classification": "TH"
  },
  {
    "roomid": "770",
    "siteid": "162",
    "automated": "N",
    "roomname": "IOE - Bedford Way (20) - 770",
    "location": {
      "coordinates": {
        "lng": "-0.1285067",
        "lat": "51.523471"
      },
      "address": [
        "20 Bedford Way",
        "London",
        "WC1H 0AL",
        ""
      ]
    },
    "sitename": "IOE - Bedford Way, 20",
    "capacity": 10,
    "classification": "CFE"
  },
  {
    "roomid": "770",
    "siteid": "162",
    "automated": "N",
    "roomname": "IOE - Bedford Way (20) - 770",
    "location": {
      "coordinates": {
        "lng": "-0.1285067",
        "lat": "51.523471"
      },
      "address": [
        "20 Bedford Way",
        "London",
        "WC1H 0AL",
        ""
      ]
    },
    "sitename": "IOE - Bedford Way, 20",
    "capacity": 12,
    "classification": "MR"
  },
  {
    "roomid": "777",
    "siteid": "162",
    "automated": "N",
    "roomname": "IOE - Bedford Way (20) - 777",
    "location": {
      "coordinates": {
        "lng": "-0.1285067",
        "lat": "51.523471"
      },
      "address": [
        "20 Bedford Way",
        "London",
        "WC1H 0AL",
        ""
      ]
    },
    "sitename": "IOE - Bedford Way, 20",
    "capacity": 20,
    "classification": "CFE"
  },
  {
    "roomid": "777",
    "siteid": "162",
    "automated": "N",
    "roomname": "IOE - Bedford Way (20) - 777",
    "location": {
      "coordinates": {
        "lng": "-0.1285067",
        "lat": "51.523471"
      },
      "address": [
        "20 Bedford Way",
        "London",
        "WC1H 0AL",
        ""
      ]
    },
    "sitename": "IOE - Bedford Way, 20",
    "capacity": 20,
    "classification": "CR"
  },
  {
    "roomid": "777",
    "siteid": "162",
    "automated": "N",
    "roomname": "IOE - Bedford Way (20) - 777",
    "location": {
      "coordinates": {
        "lng": "-0.1285067",
        "lat": "51.523471"
      },
      "address": [
        "20 Bedford Way",
        "London",
        "WC1H 0AL",
        ""
      ]
    },
    "sitename": "IOE - Bedford Way, 20",
    "capacity": 30,
    "classification": "TH"
  },
  {
    "roomid": "780",
    "siteid": "162",
    "automated": "N",
    "roomname": "IOE - Bedford Way (20) - 780",
    "location": {
      "coordinates": {
        "lng": "-0.1285067",
        "lat": "51.523471"
      },
      "address": [
        "20 Bedford Way",
        "London",
        "WC1H 0AL",
        ""
      ]
    },
    "sitename": "IOE - Bedford Way, 20",
    "capacity": 30,
    "classification": "CFE"
  },
  {
    "roomid": "780",
    "siteid": "162",
    "automated": "N",
    "roomname": "IOE - Bedford Way (20) - 780",
    "location": {
      "coordinates": {
        "lng": "-0.1285067",
        "lat": "51.523471"
      },
      "address": [
        "20 Bedford Way",
        "London",
        "WC1H 0AL",
        ""
      ]
    },
    "sitename": "IOE - Bedford Way, 20",
    "capacity": 36,
    "classification": "CR"
  },
  {
    "roomid": "780",
    "siteid": "162",
    "automated": "N",
    "roomname": "IOE - Bedford Way (20) - 780",
    "location": {
      "coordinates": {
        "lng": "-0.1285067",
        "lat": "51.523471"
      },
      "address": [
        "20 Bedford Way",
        "London",
        "WC1H 0AL",
        ""
      ]
    },
    "sitename": "IOE - Bedford Way, 20",
    "capacity": 40,
    "classification": "TH"
  },
  {
    "roomid": "784",
    "siteid": "162",
    "automated": "N",
    "roomname": "IOE - Bedford Way (20) - 784",
    "location": {
      "coordinates": {
        "lng": "-0.1285067",
        "lat": "51.523471"
      },
      "address": [
        "20 Bedford Way",
        "London",
        "WC1H 0AL",
        ""
      ]
    },
    "sitename": "IOE - Bedford Way, 20",
    "capacity": 30,
    "classification": "CFE"
  },
  {
    "roomid": "784",
    "siteid": "162",
    "automated": "N",
    "roomname": "IOE - Bedford Way (20) - 784",
    "location": {
      "coordinates": {
        "lng": "-0.1285067",
        "lat": "51.523471"
      },
      "address": [
        "20 Bedford Way",
        "London",
        "WC1H 0AL",
        ""
      ]
    },
    "sitename": "IOE - Bedford Way, 20",
    "capacity": 36,
    "classification": "CR"
  },
  {
    "roomid": "784",
    "siteid": "162",
    "automated": "N",
    "roomname": "IOE - Bedford Way (20) - 784",
    "location": {
      "coordinates": {
        "lng": "-0.1285067",
        "lat": "51.523471"
      },
      "address": [
        "20 Bedford Way",
        "London",
        "WC1H 0AL",
        ""
      ]
    },
    "sitename": "IOE - Bedford Way, 20",
    "capacity": 40,
    "classification": "TH"
  },
  {
    "roomid": "B03",
    "siteid": "107",
    "automated": "P",
    "roomname": "Drayton House B03 Ricardo LT",
    "location": {
      "coordinates": {
        "lng": "-0.133196",
        "lat": "51.526109"
      },
      "address": [
        "30 Gordon St",
        "London",
        "WC1H 0BE",
        ""
      ]
    },
    "sitename": "Drayton House",
    "capacity": 64,
    "classification": "LT"
  },
  {
    "roomid": "B04",
    "siteid": "107",
    "automated": "P",
    "roomname": "Drayton House B04",
    "location": {
      "coordinates": {
        "lng": "-0.133196",
        "lat": "51.526109"
      },
      "address": [
        "30 Gordon St",
        "London",
        "WC1H 0BE",
        ""
      ]
    },
    "sitename": "Drayton House",
    "capacity": 20,
    "classification": "LT"
  },
  {
    "roomid": "B05",
    "siteid": "107",
    "automated": "P",
    "roomname": "Drayton House B05",
    "location": {
      "coordinates": {
        "lng": "-0.133196",
        "lat": "51.526109"
      },
      "address": [
        "30 Gordon St",
        "London",
        "WC1H 0BE",
        ""
      ]
    },
    "sitename": "Drayton House",
    "capacity": 20,
    "classification": "LT"
  },
  {
    "roomid": "B06",
    "siteid": "107",
    "automated": "P",
    "roomname": "Drayton House B06",
    "location": {
      "coordinates": {
        "lng": "-0.133196",
        "lat": "51.526109"
      },
      "address": [
        "30 Gordon St",
        "London",
        "WC1H 0BE",
        ""
      ]
    },
    "sitename": "Drayton House",
    "capacity": 35,
    "classification": "CR"
  },
  {
    "roomid": "102",
    "siteid": "045",
    "automated": "A",
    "roomname": "Roberts Building 102",
    "location": {
      "coordinates": {
        "lng": "-0.1321",
        "lat": "51.5229"
      },
      "address": [
        "Torrington Place",
        "London",
        "WC1E 7JE",
        ""
      ]
    },
    "sitename": "Roberts Building",
    "capacity": 5,
    "classification": "CR"
  },
  {
    "roomid": "103",
    "siteid": "045",
    "automated": "A",
    "roomname": "Roberts Building 103",
    "location": {
      "coordinates": {
        "lng": "-0.1321",
        "lat": "51.5229"
      },
      "address": [
        "Torrington Place",
        "London",
        "WC1E 7JE",
        ""
      ]
    },
    "sitename": "Roberts Building",
    "capacity": 6,
    "classification": "CR"
  },
  {
    "roomid": "105A",
    "siteid": "045",
    "automated": "P",
    "roomname": "Roberts Building 105a",
    "location": {
      "coordinates": {
        "lng": "-0.1321",
        "lat": "51.5229"
      },
      "address": [
        "Torrington Place",
        "London",
        "WC1E 7JE",
        ""
      ]
    },
    "sitename": "Roberts Building",
    "capacity": 16,
    "classification": "CR"
  },
  {
    "roomid": "105B",
    "siteid": "045",
    "automated": "P",
    "roomname": "Roberts Building 105b",
    "location": {
      "coordinates": {
        "lng": "-0.1321",
        "lat": "51.5229"
      },
      "address": [
        "Torrington Place",
        "London",
        "WC1E 7JE",
        ""
      ]
    },
    "sitename": "Roberts Building",
    "capacity": 16,
    "classification": "CR"
  },
  {
    "roomid": "106",
    "siteid": "045",
    "automated": "P",
    "roomname": "Roberts Building 106",
    "location": {
      "coordinates": {
        "lng": "-0.1321",
        "lat": "51.5229"
      },
      "address": [
        "Torrington Place",
        "London",
        "WC1E 7JE",
        ""
      ]
    },
    "sitename": "Roberts Building",
    "capacity": 150,
    "classification": "LT"
  },
  {
    "roomid": "110",
    "siteid": "045",
    "automated": "P",
    "roomname": "Roberts Building 110",
    "location": {
      "coordinates": {
        "lng": "-0.1321",
        "lat": "51.5229"
      },
      "address": [
        "Torrington Place",
        "London",
        "WC1E 7JE",
        ""
      ]
    },
    "sitename": "Roberts Building",
    "capacity": 40,
    "classification": "CR"
  },
  {
    "roomid": "309",
    "siteid": "045",
    "automated": "P",
    "roomname": "Roberts Building 309",
    "location": {
      "coordinates": {
        "lng": "-0.1321",
        "lat": "51.5229"
      },
      "address": [
        "Torrington Place",
        "London",
        "WC1E 7JE",
        ""
      ]
    },
    "sitename": "Roberts Building",
    "capacity": 63,
    "classification": "LT"
  },
  {
    "roomid": "944",
    "siteid": "162",
    "automated": "N",
    "roomname": "IOE - Bedford Way (20) - 944",
    "location": {
      "coordinates": {
        "lng": "-0.1285067",
        "lat": "51.523471"
      },
      "address": [
        "20 Bedford Way",
        "London",
        "WC1H 0AL",
        ""
      ]
    },
    "sitename": "IOE - Bedford Way, 20",
    "capacity": 35,
    "classification": "TH"
  },
  {
    "roomid": "935",
    "siteid": "162",
    "automated": "N",
    "roomname": "IOE - Bedford Way (20) - 935",
    "location": {
      "coordinates": {
        "lng": "-0.1285067",
        "lat": "51.523471"
      },
      "address": [
        "20 Bedford Way",
        "London",
        "WC1H 0AL",
        ""
      ]
    },
    "sitename": "IOE - Bedford Way, 20",
    "capacity": 12,
    "classification": "MR"
  },
  {
    "roomid": "915",
    "siteid": "162",
    "automated": "N",
    "roomname": "IOE - Bedford Way (20) - 915",
    "location": {
      "coordinates": {
        "lng": "-0.1285067",
        "lat": "51.523471"
      },
      "address": [
        "20 Bedford Way",
        "London",
        "WC1H 0AL",
        ""
      ]
    },
    "sitename": "IOE - Bedford Way, 20",
    "capacity": 20,
    "classification": "PC1"
  },
  {
    "roomid": "944",
    "siteid": "162",
    "automated": "N",
    "roomname": "IOE - Bedford Way (20) - 944",
    "location": {
      "coordinates": {
        "lng": "-0.1285067",
        "lat": "51.523471"
      },
      "address": [
        "20 Bedford Way",
        "London",
        "WC1H 0AL",
        ""
      ]
    },
    "sitename": "IOE - Bedford Way, 20",
    "capacity": 25,
    "classification": "CFE"
  },
  {
    "roomid": "B14",
    "siteid": "201",
    "automated": "P",
    "roomname": "Rockefeller Building B14",
    "location": {
      "coordinates": {
        "lng": "-0.1347",
        "lat": "51.5237"
      },
      "address": [
        "21 University Street",
        "London",
        "WC1E 6JJ",
        ""
      ]
    },
    "sitename": "Rockefeller Building",
    "capacity": 12,
    "classification": "CR"
  },
  {
    "roomid": "B14A",
    "siteid": "201",
    "automated": "P",
    "roomname": "Rockefeller Building B14A",
    "location": {
      "coordinates": {
        "lng": "-0.1347",
        "lat": "51.5237"
      },
      "address": [
        "21 University Street",
        "London",
        "WC1E 6JJ",
        ""
      ]
    },
    "sitename": "Rockefeller Building",
    "capacity": 12,
    "classification": "CR"
  },
  {
    "roomid": "B15",
    "siteid": "201",
    "automated": "P",
    "roomname": "Rockefeller Building B15",
    "location": {
      "coordinates": {
        "lng": "-0.1347",
        "lat": "51.5237"
      },
      "address": [
        "21 University Street",
        "London",
        "WC1E 6JJ",
        ""
      ]
    },
    "sitename": "Rockefeller Building",
    "capacity": 12,
    "classification": "CR"
  },
  {
    "roomid": "B16",
    "siteid": "201",
    "automated": "A",
    "roomname": "Rockefeller Building B16",
    "location": {
      "coordinates": {
        "lng": "-0.1347",
        "lat": "51.5237"
      },
      "address": [
        "21 University Street",
        "London",
        "WC1E 6JJ",
        ""
      ]
    },
    "sitename": "Rockefeller Building",
    "capacity": 10,
    "classification": "CR"
  },
  {
    "roomid": "G02",
    "siteid": "201",
    "automated": "P",
    "roomname": "Rockefeller Building G02",
    "location": {
      "coordinates": {
        "lng": "-0.1347",
        "lat": "51.5237"
      },
      "address": [
        "21 University Street",
        "London",
        "WC1E 6JJ",
        ""
      ]
    },
    "sitename": "Rockefeller Building",
    "capacity": 20,
    "classification": "CR"
  },
  {
    "roomid": "944",
    "siteid": "162",
    "automated": "N",
    "roomname": "IOE - Bedford Way (20) - 944",
    "location": {
      "coordinates": {
        "lng": "-0.1285067",
        "lat": "51.523471"
      },
      "address": [
        "20 Bedford Way",
        "London",
        "WC1H 0AL",
        ""
      ]
    },
    "sitename": "IOE - Bedford Way, 20",
    "capacity": 25,
    "classification": "CR"
  },
  {
    "roomid": "G15",
    "siteid": "201",
    "automated": "P",
    "roomname": "Rockefeller Building G15",
    "location": {
      "coordinates": {
        "lng": "-0.1347",
        "lat": "51.5237"
      },
      "address": [
        "21 University Street",
        "London",
        "WC1E 6JJ",
        ""
      ]
    },
    "sitename": "Rockefeller Building",
    "capacity": 12,
    "classification": "CR"
  },
  {
    "roomid": "102",
    "siteid": "162",
    "automated": "N",
    "roomname": "IOE - Bedford Way (20) - 102 - Drama Studio",
    "location": {
      "coordinates": {
        "lng": "-0.1285067",
        "lat": "51.523471"
      },
      "address": [
        "20 Bedford Way",
        "London",
        "WC1H 0AL",
        ""
      ]
    },
    "sitename": "IOE - Bedford Way, 20",
    "capacity": 80,
    "classification": "CFE"
  },
  {
    "roomid": "G16",
    "siteid": "201",
    "automated": "A",
    "roomname": "Rockefeller Building G16",
    "location": {
      "coordinates": {
        "lng": "-0.1347",
        "lat": "51.5237"
      },
      "address": [
        "21 University Street",
        "London",
        "WC1E 6JJ",
        ""
      ]
    },
    "sitename": "Rockefeller Building",
    "capacity": 8,
    "classification": "CR"
  },
  {
    "roomid": "102",
    "siteid": "162",
    "automated": "N",
    "roomname": "IOE - Bedford Way (20) - 102 - Drama Studio",
    "location": {
      "coordinates": {
        "lng": "-0.1285067",
        "lat": "51.523471"
      },
      "address": [
        "20 Bedford Way",
        "London",
        "WC1H 0AL",
        ""
      ]
    },
    "sitename": "IOE - Bedford Way, 20",
    "capacity": 75,
    "classification": "CR"
  },
  {
    "roomid": "102",
    "siteid": "162",
    "automated": "N",
    "roomname": "IOE - Bedford Way (20) - 102 - Drama Studio",
    "location": {
      "coordinates": {
        "lng": "-0.1285067",
        "lat": "51.523471"
      },
      "address": [
        "20 Bedford Way",
        "London",
        "WC1H 0AL",
        ""
      ]
    },
    "sitename": "IOE - Bedford Way, 20",
    "capacity": 120,
    "classification": "TH"
  },
  {
    "roomid": "103",
    "siteid": "162",
    "automated": "N",
    "roomname": "IOE - Bedford Way (20) - 103 - Jeffery Hall",
    "location": {
      "coordinates": {
        "lng": "-0.1285067",
        "lat": "51.523471"
      },
      "address": [
        "20 Bedford Way",
        "London",
        "WC1H 0AL",
        ""
      ]
    },
    "sitename": "IOE - Bedford Way, 20",
    "capacity": 150,
    "classification": "CFE"
  },
  {
    "roomid": "103",
    "siteid": "162",
    "automated": "N",
    "roomname": "IOE - Bedford Way (20) - 103 - Jeffery Hall",
    "location": {
      "coordinates": {
        "lng": "-0.1285067",
        "lat": "51.523471"
      },
      "address": [
        "20 Bedford Way",
        "London",
        "WC1H 0AL",
        ""
      ]
    },
    "sitename": "IOE - Bedford Way, 20",
    "capacity": 120,
    "classification": "CR"
  },
  {
    "roomid": "103",
    "siteid": "162",
    "automated": "N",
    "roomname": "IOE - Bedford Way (20) - 103 - Jeffery Hall",
    "location": {
      "coordinates": {
        "lng": "-0.1285067",
        "lat": "51.523471"
      },